{
  "user_profile": {
    "user_id": "002722e4-f618-4104-ae0e-c7613376fa03",
    "archetype": "Small Business Owner",
    "home_address": {
      "latitude": 44.07974428370873,
      "longitude": -70.58053622575365
    },
    "preferred_categories": [
      "Office Supplies",
      "Professional Services",
      "Restaurant",
      "Hardware",
      "Wholesale"
    ],
    "avg_transaction_amount": 550.0,
    "credit_score": 750
  },
  "transactions": [
    {
      "transaction_id": "TX001",
      "timestamp": "2024-10-15 09:15:00",
      "amount": 350.75,
      "merchant": {
        "id": "M001",
        "name": "Office Depot",
        "category": "Office Supplies",
        "latitude": 44.075,
        "longitude": -70.5865
      },
      "transaction_type": "in-person",
      "location": {
        "latitude": 44.075,
        "longitude": -70.5865,
        "distance_from_home": 1.5
      },
      "device_info": {
        "device_id": "D001",
        "type": "desktop",
        "is_trusted": true
      },
      "authentication": {
        "cvv_provided": true,
        "three_d_secure": "authenticated",
        "attempts": 1
      },
      "is_fraud": false
    },
    {
      "transaction_id": "TX002",
      "timestamp": "2024-10-20 12:45:00",
      "amount": 175.0,
      "merchant": {
        "id": "M002",
        "name": "National Chain Restaurant",
        "category": "Restaurant",
        "latitude": 44.081,
        "longitude": -70.575
      },
      "transaction_type": "in-person",
      "location": {
        "latitude": 44.081,
        "longitude": -70.575,
        "distance_from_home": 2.0
      },
      "device_info": {
        "device_id": "D002",
        "type": "mobile",
        "is_trusted": true
      },
      "authentication": {
        "cvv_provided": true,
        "three_d_secure": "authenticated",
        "attempts": 1
      },
      "is_fraud": false
    },
    {
      "transaction_id": "TX003",
      "timestamp": "2024-10-25 08:30:00",
      "amount": 600.5,
      "merchant": {
        "id": "M003",
        "name": "Printing Service",
        "category": "Professional Services",
        "latitude": 44.09,
        "longitude": -70.58
      },
      "transaction_type": "in-person",
      "location": {
        "latitude": 44.09,
        "longitude": -70.58,
        "distance_from_home": 8.0
      },
      "device_info": {
        "device_id": "D003",
        "type": "tablet",
        "is_trusted": false
      },
      "authentication": {
        "cvv_provided": true,
        "three_d_secure": "not_authenticated",
        "attempts": 3
      },
      "is_fraud": true
    },
    {
      "transaction_id": "TX004",
      "timestamp": "2024-10-28 14:20:00",
      "amount": 820.1,
      "merchant": {
        "id": "M004",
        "name": "Home Hardware",
        "category": "Hardware",
        "latitude": 43.99,
        "longitude": -70.5805
      },
      "transaction_type": "in-person",
      "location": {
        "latitude": 43.99,
        "longitude": -70.5805,
        "distance_from_home": 9.0
      },
      "device_info": {
        "device_id": "D004",
        "type": "mobile",
        "is_trusted": true
      },
      "authentication": {
        "cvv_provided": true,
        "three_d_secure": "authenticated",
        "attempts": 1
      },
      "is_fraud": false
    },
    {
      "transaction_id": "TX005",
      "timestamp": "2024-11-01 18:05:00",
      "amount": 265.0,
      "merchant": {
        "id": "M005",
        "name": "Local Grocer",
        "category": "Grocery",
        "latitude": 44.0725,
        "longitude": -70.579
      },
      "transaction_type": "in-person",
      "location": {
        "latitude": 44.0725,
        "longitude": -70.579,
        "distance_from_home": 3.0
      },
      "device_info": {
        "device_id": "D005",
        "type": "desktop",
        "is_trusted": true
      },
      "authentication": {
        "cvv_provided": true,
        "three_d_secure": "authenticated",
        "attempts": 1
      },
      "is_fraud": false
    },
    {
      "transaction_id": "TX006",
      "timestamp": "2024-11-02 10:00:00",
      "amount": 450.0,
      "merchant": {
        "id": "M006",
        "name": "Office Supply City",
        "category": "Office Supplies",
        "latitude": 44.07,
        "longitude": -70.59
      },
      "transaction_type": "online",
      "location": {
        "latitude": 44.07,
        "longitude": -70.59,
        "distance_from_home": 4.0
      },
      "device_info": {
        "device_id": "D006",
        "type": "mobile",
        "is_trusted": true
      },
      "authentication": {
        "cvv_provided": true,
        "three_d_secure": "authenticated",
        "attempts": 1
      },
      "is_fraud": false
    },
    {
      "transaction_id": "TX007",
      "timestamp": "2024-11-03 19:45:00",
      "amount": 200.0,
      "merchant": {
        "id": "M007",
        "name": "National Chain Restaurant",
        "category": "Restaurant",
        "latitude": 43.95,
        "longitude": -70.56
      },
      "transaction_type": "in-person",
      "location": {
        "latitude": 43.95,
        "longitude": -70.56,
        "distance_from_home": 25.0
      },
      "device_info": {
        "device_id": "D007",
        "type": "tablet",
        "is_trusted": true
      },
      "authentication": {
        "cvv_provided": true,
        "three_d_secure": "authenticated",
        "attempts": 1
      },
      "is_fraud": false
    },
    {
      "transaction_id": "TX008",
      "timestamp": "2024-11-04 15:30:00",
      "amount": 785.0,
      "merchant": {
        "id": "M008",
        "name": "Fine Dining Place",
        "category": "Restaurant",
        "latitude": 44.12,
        "longitude": -70.55
      },
      "transaction_type": "in-person",
      "location": {
        "latitude": 44.12,
        "longitude": -70.55,
        "distance_from_home": 12.0
      },
      "device_info": {
        "device_id": "D008",
        "type": "mobile",
        "is_trusted": false
      },
      "authentication": {
        "cvv_provided": true,
        "three_d_secure": "not_authenticated",
        "attempts": 2
      },
      "is_fraud": true
    },
    {
      "transaction_id": "TX009",
      "timestamp": "2024-11-05 11:00:00",
      "amount": 400.0,
      "merchant": {
        "id": "M009",
        "name": "Wholesaler",
        "category": "Wholesale",
        "latitude": 44.07,
        "longitude": -70.58
      },
      "transaction_type": "online",
      "location": {
        "latitude": 44.07,
        "longitude": -70.58,
        "distance_from_home": 4.5
      },
      "device_info": {
        "device_id": "D009",
        "type": "desktop",
        "is_trusted": true
      },
      "authentication": {
        "cvv_provided": true,
        "three_d_secure": "authenticated",
        "attempts": 1
      },
      "is_fraud": false
    },
    {
      "transaction_id": "TX010",
      "timestamp": "2024-11-05 16:30:00",
      "amount": 920.0,
      "merchant": {
        "id": "M010",
        "name": "Local Hardware Store",
        "category": "Hardware",
        "latitude": 44.085,
        "longitude": -70.575
      },
      "transaction_type": "in-person",
      "location": {
        "latitude": 44.085,
        "longitude": -70.575,
        "distance_from_home": 2.5
      },
      "device_info": {
        "device_id": "D010",
        "type": "mobile",
        "is_trusted": true
      },
      "authentication": {
        "cvv_provided": true,
        "three_d_secure": "authenticated",
        "attempts": 1
      },
      "is_fraud": false
    }
  ]
}