{
  "user_profile": {
    "user_id": "0cbd936c-93ab-4f71-bdde-a760428ff5d5",
    "archetype": "Small Business Owner",
    "home_address": {
      "latitude": 37.1181,
      "longitude": -83.1274
    },
    "preferred_categories": [
      "Office Supplies",
      "Professional Services",
      "Restaurant",
      "Hardware",
      "Wholesale"
    ],
    "avg_transaction_amount": 150.0,
    "credit_score": 750
  },
  "transactions": [
    {
      "transaction_id": "TX001",
      "timestamp": "2024-10-15 12:00:00",
      "amount": 250.75,
      "merchant": {
        "id": "M001",
        "name": "Consulting Firm",
        "category": "Professional Services",
        "latitude": 37.114,
        "longitude": -83.125
      },
      "transaction_type": "in-person",
      "location": {
        "latitude": 37.114,
        "longitude": -83.125,
        "distance_from_home": 1.5
      },
      "device_info": {
        "device_id": "D001",
        "type": "mobile",
        "is_trusted": true
      },
      "authentication": {
        "cvv_provided": true,
        "three_d_secure": "authenticated",
        "attempts": 1
      },
      "is_fraud": false
    },
    {
      "transaction_id": "TX002",
      "timestamp": "2024-10-17 14:15:00",
      "amount": 320.4,
      "merchant": {
        "id": "M002",
        "name": "Office Depot",
        "category": "Office Supplies",
        "latitude": 37.12,
        "longitude": -83.13
      },
      "transaction_type": "in-person",
      "location": {
        "latitude": 37.12,
        "longitude": -83.13,
        "distance_from_home": 2.0
      },
      "device_info": {
        "device_id": "D002",
        "type": "desktop",
        "is_trusted": true
      },
      "authentication": {
        "cvv_provided": true,
        "three_d_secure": "authenticated",
        "attempts": 1
      },
      "is_fraud": false
    },
    {
      "transaction_id": "TX003",
      "timestamp": "2024-10-19 18:45:00",
      "amount": 80.0,
      "merchant": {
        "id": "M003",
        "name": "Food Truck",
        "category": "Restaurant",
        "latitude": 37.115,
        "longitude": -83.128
      },
      "transaction_type": "in-person",
      "location": {
        "latitude": 37.115,
        "longitude": -83.128,
        "distance_from_home": 1.0
      },
      "device_info": {
        "device_id": "D003",
        "type": "mobile",
        "is_trusted": true
      },
      "authentication": {
        "cvv_provided": true,
        "three_d_secure": "authenticated",
        "attempts": 1
      },
      "is_fraud": false
    },
    {
      "transaction_id": "TX004",
      "timestamp": "2024-10-21 09:30:00",
      "amount": 145.5,
      "merchant": {
        "id": "M004",
        "name": "Staples",
        "category": "Office Supplies",
        "latitude": 37.121,
        "longitude": -83.129
      },
      "transaction_type": "in-person",
      "location": {
        "latitude": 37.121,
        "longitude": -83.129,
        "distance_from_home": 3.0
      },
      "device_info": {
        "device_id": "D004",
        "type": "mobile",
        "is_trusted": true
      },
      "authentication": {
        "cvv_provided": true,
        "three_d_secure": "authenticated",
        "attempts": 1
      },
      "is_fraud": false
    },
    {
      "transaction_id": "TX005",
      "timestamp": "2024-10-25 13:00:00",
      "amount": 630.0,
      "merchant": {
        "id": "M005",
        "name": "Fine Dining Restaurant",
        "category": "Restaurant",
        "latitude": 37.117,
        "longitude": -83.126
      },
      "transaction_type": "in-person",
      "location": {
        "latitude": 37.117,
        "longitude": -83.126,
        "distance_from_home": 0.8
      },
      "device_info": {
        "device_id": "D005",
        "type": "desktop",
        "is_trusted": true
      },
      "authentication": {
        "cvv_provided": true,
        "three_d_secure": "authenticated",
        "attempts": 1
      },
      "is_fraud": false
    },
    {
      "transaction_id": "TX006",
      "timestamp": "2024-10-28 15:30:00",
      "amount": 410.0,
      "merchant": {
        "id": "M006",
        "name": "Local Hardware Store",
        "category": "Hardware",
        "latitude": 37.131,
        "longitude": -83.14
      },
      "transaction_type": "in-person",
      "location": {
        "latitude": 37.131,
        "longitude": -83.14,
        "distance_from_home": 6.0
      },
      "device_info": {
        "device_id": "D006",
        "type": "mobile",
        "is_trusted": true
      },
      "authentication": {
        "cvv_provided": true,
        "three_d_secure": "authenticated",
        "attempts": 1
      },
      "is_fraud": false
    },
    {
      "transaction_id": "TX007",
      "timestamp": "2024-11-01 11:15:00",
      "amount": 950.0,
      "merchant": {
        "id": "M007",
        "name": "Wholesaler Depot",
        "category": "Wholesale",
        "latitude": 37.14,
        "longitude": -83.15
      },
      "transaction_type": "in-person",
      "location": {
        "latitude": 37.14,
        "longitude": -83.15,
        "distance_from_home": 8.0
      },
      "device_info": {
        "device_id": "D007",
        "type": "desktop",
        "is_trusted": true
      },
      "authentication": {
        "cvv_provided": true,
        "three_d_secure": "authenticated",
        "attempts": 1
      },
      "is_fraud": false
    },
    {
      "transaction_id": "TX008",
      "timestamp": "2024-11-02 16:00:00",
      "amount": 720.0,
      "merchant": {
        "id": "M008",
        "name": "Printing Service",
        "category": "Professional Services",
        "latitude": 37.15,
        "longitude": -83.155
      },
      "transaction_type": "in-person",
      "location": {
        "latitude": 37.15,
        "longitude": -83.155,
        "distance_from_home": 12.0
      },
      "device_info": {
        "device_id": "D008",
        "type": "mobile",
        "is_trusted": false
      },
      "authentication": {
        "cvv_provided": true,
        "three_d_secure": "not_authenticated",
        "attempts": 2
      },
      "is_fraud": true
    },
    {
      "transaction_id": "TX009",
      "timestamp": "2024-11-03 19:00:00",
      "amount": 250.0,
      "merchant": {
        "id": "M009",
        "name": "Local Caf\u00e9",
        "category": "Restaurant",
        "latitude": 37.1185,
        "longitude": -83.1265
      },
      "transaction_type": "in-person",
      "location": {
        "latitude": 37.1185,
        "longitude": -83.1265,
        "distance_from_home": 0.3
      },
      "device_info": {
        "device_id": "D009",
        "type": "mobile",
        "is_trusted": true
      },
      "authentication": {
        "cvv_provided": true,
        "three_d_secure": "authenticated",
        "attempts": 1
      },
      "is_fraud": false
    },
    {
      "transaction_id": "TX010",
      "timestamp": "2024-11-04 08:30:00",
      "amount": 80.0,
      "merchant": {
        "id": "M010",
        "name": "Gas Station",
        "category": "Miscellaneous",
        "latitude": 37.1155,
        "longitude": -83.1305
      },
      "transaction_type": "in-person",
      "location": {
        "latitude": 37.1155,
        "longitude": -83.1305,
        "distance_from_home": 2.5
      },
      "device_info": {
        "device_id": "D010",
        "type": "mobile",
        "is_trusted": true
      },
      "authentication": {
        "cvv_provided": true,
        "three_d_secure": "authenticated",
        "attempts": 1
      },
      "is_fraud": false
    }
  ]
}