{
  "user_profile": {
    "user_id": "16ac56a4-0cf2-4006-87b4-716df1d6406d",
    "archetype": "Urban Professional",
    "home_address": {
      "latitude": 35.41260510467804,
      "longitude": -122.25692533856815
    },
    "preferred_categories": [
      "Restaurant",
      "Transportation",
      "Entertainment",
      "Grocery",
      "Coffee Shops"
    ],
    "avg_transaction_amount": 100.0,
    "credit_score": 750
  },
  "transactions": [
    {
      "transaction_id": "TX001",
      "timestamp": "2024-10-30 09:15:00",
      "amount": 75.5,
      "merchant": {
        "id": "M001",
        "name": "Local Diner",
        "category": "Restaurant",
        "latitude": 35.42,
        "longitude": -122.25
      },
      "transaction_type": "in-person",
      "location": {
        "latitude": 35.42,
        "longitude": -122.25,
        "distance_from_home": 1.5
      },
      "device_info": {
        "device_id": "D001",
        "type": "mobile",
        "is_trusted": true
      },
      "authentication": {
        "cvv_provided": true,
        "three_d_secure": "authenticated",
        "attempts": 1
      },
      "is_fraud": false
    },
    {
      "transaction_id": "TX002",
      "timestamp": "2024-10-31 12:45:00",
      "amount": 120.0,
      "merchant": {
        "id": "M002",
        "name": "Amusement Park",
        "category": "Entertainment",
        "latitude": 35.44,
        "longitude": -122.27
      },
      "transaction_type": "in-person",
      "location": {
        "latitude": 35.44,
        "longitude": -122.27,
        "distance_from_home": 3.0
      },
      "device_info": {
        "device_id": "D002",
        "type": "mobile",
        "is_trusted": true
      },
      "authentication": {
        "cvv_provided": true,
        "three_d_secure": "authenticated",
        "attempts": 1
      },
      "is_fraud": false
    },
    {
      "transaction_id": "TX003",
      "timestamp": "2024-11-01 19:30:00",
      "amount": 150.75,
      "merchant": {
        "id": "M003",
        "name": "Movie Theater",
        "category": "Entertainment",
        "latitude": 35.41,
        "longitude": -122.255
      },
      "transaction_type": "in-person",
      "location": {
        "latitude": 35.41,
        "longitude": -122.255,
        "distance_from_home": 0.7
      },
      "device_info": {
        "device_id": "D003",
        "type": "mobile",
        "is_trusted": true
      },
      "authentication": {
        "cvv_provided": true,
        "three_d_secure": "authenticated",
        "attempts": 1
      },
      "is_fraud": false
    },
    {
      "transaction_id": "TX004",
      "timestamp": "2024-11-02 08:05:00",
      "amount": 48.9,
      "merchant": {
        "id": "M004",
        "name": "Local Cafe",
        "category": "Coffee Shops",
        "latitude": 35.415,
        "longitude": -122.258
      },
      "transaction_type": "in-person",
      "location": {
        "latitude": 35.415,
        "longitude": -122.258,
        "distance_from_home": 1.0
      },
      "device_info": {
        "device_id": "D004",
        "type": "mobile",
        "is_trusted": true
      },
      "authentication": {
        "cvv_provided": true,
        "three_d_secure": "authenticated",
        "attempts": 1
      },
      "is_fraud": false
    },
    {
      "transaction_id": "TX005",
      "timestamp": "2024-11-03 14:30:00",
      "amount": 250.0,
      "merchant": {
        "id": "M005",
        "name": "Wholesale Club",
        "category": "Grocery",
        "latitude": 35.427,
        "longitude": -122.245
      },
      "transaction_type": "in-person",
      "location": {
        "latitude": 35.427,
        "longitude": -122.245,
        "distance_from_home": 4.0
      },
      "device_info": {
        "device_id": "D005",
        "type": "mobile",
        "is_trusted": true
      },
      "authentication": {
        "cvv_provided": true,
        "three_d_secure": "authenticated",
        "attempts": 1
      },
      "is_fraud": false
    },
    {
      "transaction_id": "TX006",
      "timestamp": "2024-11-04 11:20:00",
      "amount": 80.25,
      "merchant": {
        "id": "M006",
        "name": "Bakery Cafe",
        "category": "Coffee Shops",
        "latitude": 35.418,
        "longitude": -122.252
      },
      "transaction_type": "in-person",
      "location": {
        "latitude": 35.418,
        "longitude": -122.252,
        "distance_from_home": 1.3
      },
      "device_info": {
        "device_id": "D006",
        "type": "mobile",
        "is_trusted": true
      },
      "authentication": {
        "cvv_provided": true,
        "three_d_secure": "authenticated",
        "attempts": 1
      },
      "is_fraud": false
    },
    {
      "transaction_id": "TX007",
      "timestamp": "2024-11-05 17:45:00",
      "amount": 99.99,
      "merchant": {
        "id": "M007",
        "name": "Local Market",
        "category": "Grocery",
        "latitude": 35.411,
        "longitude": -122.263
      },
      "transaction_type": "in-person",
      "location": {
        "latitude": 35.411,
        "longitude": -122.263,
        "distance_from_home": 0.5
      },
      "device_info": {
        "device_id": "D007",
        "type": "mobile",
        "is_trusted": true
      },
      "authentication": {
        "cvv_provided": true,
        "three_d_secure": "authenticated",
        "attempts": 1
      },
      "is_fraud": false
    },
    {
      "transaction_id": "TX008",
      "timestamp": "2024-11-05 19:30:00",
      "amount": 150.0,
      "merchant": {
        "id": "M008",
        "name": "Fast Food",
        "category": "Restaurant",
        "latitude": 35.4,
        "longitude": -122.27
      },
      "transaction_type": "in-person",
      "location": {
        "latitude": 35.4,
        "longitude": -122.27,
        "distance_from_home": 7.0
      },
      "device_info": {
        "device_id": "D008",
        "type": "mobile",
        "is_trusted": true
      },
      "authentication": {
        "cvv_provided": true,
        "three_d_secure": "authenticated",
        "attempts": 1
      },
      "is_fraud": false
    },
    {
      "transaction_id": "TX009",
      "timestamp": "2024-11-06 12:00:00",
      "amount": 300.0,
      "merchant": {
        "id": "M009",
        "name": "Online Retailer",
        "category": "Online Shopping",
        "latitude": 0.0,
        "longitude": 0.0
      },
      "transaction_type": "online",
      "location": {
        "latitude": 0.0,
        "longitude": 0.0,
        "distance_from_home": 100.0
      },
      "device_info": {
        "device_id": "D009",
        "type": "desktop",
        "is_trusted": false
      },
      "authentication": {
        "cvv_provided": true,
        "three_d_secure": "not_authenticated",
        "attempts": 3
      },
      "is_fraud": true
    },
    {
      "transaction_id": "TX010",
      "timestamp": "2024-11-07 18:00:00",
      "amount": 200.0,
      "merchant": {
        "id": "M010",
        "name": "Taxi Service",
        "category": "Transportation",
        "latitude": 35.385,
        "longitude": -122.265
      },
      "transaction_type": "in-person",
      "location": {
        "latitude": 35.385,
        "longitude": -122.265,
        "distance_from_home": 9.5
      },
      "device_info": {
        "device_id": "D010",
        "type": "mobile",
        "is_trusted": true
      },
      "authentication": {
        "cvv_provided": true,
        "three_d_secure": "authenticated",
        "attempts": 1
      },
      "is_fraud": false
    }
  ]
}