{
  "user_profile": {
    "user_id": "1d7cefb8-92db-4e83-ad7c-4a73eb0da230",
    "archetype": "Rural Resident",
    "home_address": {
      "latitude": 27.544465368762285,
      "longitude": -85.39937921952293
    },
    "preferred_categories": [
      "Gas",
      "Grocery",
      "Hardware",
      "Agriculture",
      "Automotive"
    ],
    "avg_transaction_amount": 100.0,
    "credit_score": 750
  },
  "transactions": [
    {
      "transaction_id": "TX001",
      "timestamp": "2024-11-04 08:15:00",
      "amount": 75.5,
      "merchant": {
        "id": "M001",
        "name": "Local Gas Station",
        "category": "Gas",
        "latitude": 27.55,
        "longitude": -85.4
      },
      "transaction_type": "in-person",
      "location": {
        "latitude": 27.55,
        "longitude": -85.4,
        "distance_from_home": 1.0
      },
      "device_info": {
        "device_id": "D001",
        "type": "mobile",
        "is_trusted": true
      },
      "authentication": {
        "cvv_provided": true,
        "three_d_secure": "authenticated",
        "attempts": 1
      },
      "is_fraud": false
    },
    {
      "transaction_id": "TX002",
      "timestamp": "2024-11-03 17:45:00",
      "amount": 120.75,
      "merchant": {
        "id": "M002",
        "name": "Farm Supply Store",
        "category": "Agriculture",
        "latitude": 27.6,
        "longitude": -85.45
      },
      "transaction_type": "in-person",
      "location": {
        "latitude": 27.6,
        "longitude": -85.45,
        "distance_from_home": 8.0
      },
      "device_info": {
        "device_id": "D002",
        "type": "mobile",
        "is_trusted": true
      },
      "authentication": {
        "cvv_provided": true,
        "three_d_secure": "authenticated",
        "attempts": 1
      },
      "is_fraud": false
    },
    {
      "transaction_id": "TX003",
      "timestamp": "2024-11-02 09:30:00",
      "amount": 95.2,
      "merchant": {
        "id": "M003",
        "name": "Grocery Market",
        "category": "Grocery",
        "latitude": 27.54,
        "longitude": -85.41
      },
      "transaction_type": "in-person",
      "location": {
        "latitude": 27.54,
        "longitude": -85.41,
        "distance_from_home": 2.5
      },
      "device_info": {
        "device_id": "D003",
        "type": "mobile",
        "is_trusted": true
      },
      "authentication": {
        "cvv_provided": true,
        "three_d_secure": "not_authenticated",
        "attempts": 1
      },
      "is_fraud": false
    },
    {
      "transaction_id": "TX004",
      "timestamp": "2024-11-01 18:00:00",
      "amount": 180.99,
      "merchant": {
        "id": "M004",
        "name": "Auto Parts Shop",
        "category": "Automotive",
        "latitude": 27.58,
        "longitude": -85.42
      },
      "transaction_type": "in-person",
      "location": {
        "latitude": 27.58,
        "longitude": -85.42,
        "distance_from_home": 3.5
      },
      "device_info": {
        "device_id": "D004",
        "type": "mobile",
        "is_trusted": true
      },
      "authentication": {
        "cvv_provided": true,
        "three_d_secure": "authenticated",
        "attempts": 1
      },
      "is_fraud": false
    },
    {
      "transaction_id": "TX005",
      "timestamp": "2024-10-30 11:15:00",
      "amount": 55.3,
      "merchant": {
        "id": "M005",
        "name": "Hardware Store",
        "category": "Hardware",
        "latitude": 27.5,
        "longitude": -85.38
      },
      "transaction_type": "in-person",
      "location": {
        "latitude": 27.5,
        "longitude": -85.38,
        "distance_from_home": 4.0
      },
      "device_info": {
        "device_id": "D005",
        "type": "mobile",
        "is_trusted": true
      },
      "authentication": {
        "cvv_provided": true,
        "three_d_secure": "authenticated",
        "attempts": 1
      },
      "is_fraud": false
    },
    {
      "transaction_id": "TX006",
      "timestamp": "2024-10-29 20:00:00",
      "amount": 42.0,
      "merchant": {
        "id": "M006",
        "name": "Organic Store",
        "category": "Grocery",
        "latitude": 27.53,
        "longitude": -85.39
      },
      "transaction_type": "in-person",
      "location": {
        "latitude": 27.53,
        "longitude": -85.39,
        "distance_from_home": 3.0
      },
      "device_info": {
        "device_id": "D006",
        "type": "mobile",
        "is_trusted": true
      },
      "authentication": {
        "cvv_provided": true,
        "three_d_secure": "authenticated",
        "attempts": 1
      },
      "is_fraud": false
    },
    {
      "transaction_id": "TX007",
      "timestamp": "2024-10-28 19:45:00",
      "amount": 200.0,
      "merchant": {
        "id": "M007",
        "name": "Service Station",
        "category": "Gas",
        "latitude": 27.54,
        "longitude": -85.43
      },
      "transaction_type": "in-person",
      "location": {
        "latitude": 27.54,
        "longitude": -85.43,
        "distance_from_home": 1.5
      },
      "device_info": {
        "device_id": "D007",
        "type": "mobile",
        "is_trusted": true
      },
      "authentication": {
        "cvv_provided": true,
        "three_d_secure": "authenticated",
        "attempts": 1
      },
      "is_fraud": false
    },
    {
      "transaction_id": "TX008",
      "timestamp": "2024-10-26 10:00:00",
      "amount": 67.8,
      "merchant": {
        "id": "M008",
        "name": "Local Repair Shop",
        "category": "Automotive",
        "latitude": 27.57,
        "longitude": -85.46
      },
      "transaction_type": "in-person",
      "location": {
        "latitude": 27.57,
        "longitude": -85.46,
        "distance_from_home": 9.0
      },
      "device_info": {
        "device_id": "D008",
        "type": "mobile",
        "is_trusted": true
      },
      "authentication": {
        "cvv_provided": true,
        "three_d_secure": "authenticated",
        "attempts": 1
      },
      "is_fraud": false
    },
    {
      "transaction_id": "TX009",
      "timestamp": "2024-10-25 15:30:00",
      "amount": 135.5,
      "merchant": {
        "id": "M009",
        "name": "Wholesale Club",
        "category": "Grocery",
        "latitude": 27.59,
        "longitude": -85.47
      },
      "transaction_type": "in-person",
      "location": {
        "latitude": 27.59,
        "longitude": -85.47,
        "distance_from_home": 12.0
      },
      "device_info": {
        "device_id": "D009",
        "type": "mobile",
        "is_trusted": true
      },
      "authentication": {
        "cvv_provided": true,
        "three_d_secure": "not_authenticated",
        "attempts": 1
      },
      "is_fraud": false
    },
    {
      "transaction_id": "TX010",
      "timestamp": "2024-10-23 14:00:00",
      "amount": 40.0,
      "merchant": {
        "id": "M010",
        "name": "Nearby Grocery Store",
        "category": "Grocery",
        "latitude": 27.51,
        "longitude": -85.44
      },
      "transaction_type": "in-person",
      "location": {
        "latitude": 27.51,
        "longitude": -85.44,
        "distance_from_home": 2.8
      },
      "device_info": {
        "device_id": "D010",
        "type": "mobile",
        "is_trusted": true
      },
      "authentication": {
        "cvv_provided": true,
        "three_d_secure": "authenticated",
        "attempts": 1
      },
      "is_fraud": false
    }
  ]
}