{
  "user_profile": {
    "user_id": "371e87ec-9785-4c4c-bb3f-ce06033ae4d4",
    "archetype": "Small Business Owner",
    "home_address": {
      "latitude": 35.6103,
      "longitude": -86.0604
    },
    "preferred_categories": [
      "Office Supplies",
      "Professional Services",
      "Restaurant",
      "Hardware",
      "Wholesale"
    ],
    "avg_transaction_amount": 1000.0,
    "credit_score": 750
  },
  "transactions": [
    {
      "transaction_id": "TX001",
      "timestamp": "2024-10-20 09:15:00",
      "amount": 150.75,
      "merchant": {
        "id": "M001",
        "name": "Office Max",
        "category": "Office Supplies",
        "latitude": 35.615,
        "longitude": -86.067
      },
      "transaction_type": "in-person",
      "location": {
        "latitude": 35.615,
        "longitude": -86.067,
        "distance_from_home": 2.5
      },
      "device_info": {
        "device_id": "D001",
        "type": "mobile",
        "is_trusted": true
      },
      "authentication": {
        "cvv_provided": true,
        "three_d_secure": "authenticated",
        "attempts": 1
      },
      "is_fraud": false
    },
    {
      "transaction_id": "TX002",
      "timestamp": "2024-10-22 14:45:00",
      "amount": 300.0,
      "merchant": {
        "id": "M002",
        "name": "Consulting Firm",
        "category": "Professional Services",
        "latitude": 35.63,
        "longitude": -86.05
      },
      "transaction_type": "in-person",
      "location": {
        "latitude": 35.63,
        "longitude": -86.05,
        "distance_from_home": 3.0
      },
      "device_info": {
        "device_id": "D002",
        "type": "desktop",
        "is_trusted": true
      },
      "authentication": {
        "cvv_provided": true,
        "three_d_secure": "authenticated",
        "attempts": 1
      },
      "is_fraud": false
    },
    {
      "transaction_id": "TX003",
      "timestamp": "2024-10-25 12:30:00",
      "amount": 50.0,
      "merchant": {
        "id": "M003",
        "name": "Fast Food Place",
        "category": "Restaurant",
        "latitude": 35.62,
        "longitude": -86.045
      },
      "transaction_type": "in-person",
      "location": {
        "latitude": 35.62,
        "longitude": -86.045,
        "distance_from_home": 1.8
      },
      "device_info": {
        "device_id": "D003",
        "type": "mobile",
        "is_trusted": true
      },
      "authentication": {
        "cvv_provided": true,
        "three_d_secure": "authenticated",
        "attempts": 1
      },
      "is_fraud": false
    },
    {
      "transaction_id": "TX004",
      "timestamp": "2024-10-28 17:00:00",
      "amount": 450.25,
      "merchant": {
        "id": "M004",
        "name": "Home Depot",
        "category": "Hardware",
        "latitude": 35.635,
        "longitude": -86.055
      },
      "transaction_type": "in-person",
      "location": {
        "latitude": 35.635,
        "longitude": -86.055,
        "distance_from_home": 4.0
      },
      "device_info": {
        "device_id": "D004",
        "type": "mobile",
        "is_trusted": true
      },
      "authentication": {
        "cvv_provided": true,
        "three_d_secure": "authenticated",
        "attempts": 1
      },
      "is_fraud": false
    },
    {
      "transaction_id": "TX005",
      "timestamp": "2024-11-01 11:30:00",
      "amount": 200.5,
      "merchant": {
        "id": "M005",
        "name": "Staples",
        "category": "Office Supplies",
        "latitude": 35.6105,
        "longitude": -86.065
      },
      "transaction_type": "in-person",
      "location": {
        "latitude": 35.6105,
        "longitude": -86.065,
        "distance_from_home": 1.0
      },
      "device_info": {
        "device_id": "D005",
        "type": "desktop",
        "is_trusted": true
      },
      "authentication": {
        "cvv_provided": true,
        "three_d_secure": "authenticated",
        "attempts": 1
      },
      "is_fraud": false
    },
    {
      "transaction_id": "TX006",
      "timestamp": "2024-11-03 15:00:00",
      "amount": 625.0,
      "merchant": {
        "id": "M006",
        "name": "Costco Wholesale",
        "category": "Wholesale",
        "latitude": 35.64,
        "longitude": -86.09
      },
      "transaction_type": "in-person",
      "location": {
        "latitude": 35.64,
        "longitude": -86.09,
        "distance_from_home": 8.0
      },
      "device_info": {
        "device_id": "D006",
        "type": "mobile",
        "is_trusted": true
      },
      "authentication": {
        "cvv_provided": true,
        "three_d_secure": "authenticated",
        "attempts": 1
      },
      "is_fraud": false
    },
    {
      "transaction_id": "TX007",
      "timestamp": "2024-11-04 13:30:00",
      "amount": 750.0,
      "merchant": {
        "id": "M007",
        "name": "Local Hardware Store",
        "category": "Hardware",
        "latitude": 35.6,
        "longitude": -86.06
      },
      "transaction_type": "in-person",
      "location": {
        "latitude": 35.6,
        "longitude": -86.06,
        "distance_from_home": 0.5
      },
      "device_info": {
        "device_id": "D007",
        "type": "mobile",
        "is_trusted": true
      },
      "authentication": {
        "cvv_provided": true,
        "three_d_secure": "authenticated",
        "attempts": 1
      },
      "is_fraud": false
    },
    {
      "transaction_id": "TX008",
      "timestamp": "2024-11-05 16:00:00",
      "amount": 1000.0,
      "merchant": {
        "id": "M008",
        "name": "Lowe's Home Improvement",
        "category": "Hardware",
        "latitude": 35.65,
        "longitude": -86.1
      },
      "transaction_type": "in-person",
      "location": {
        "latitude": 35.65,
        "longitude": -86.1,
        "distance_from_home": 10.0
      },
      "device_info": {
        "device_id": "D008",
        "type": "desktop",
        "is_trusted": true
      },
      "authentication": {
        "cvv_provided": true,
        "three_d_secure": "authenticated",
        "attempts": 1
      },
      "is_fraud": true
    },
    {
      "transaction_id": "TX009",
      "timestamp": "2024-11-02 18:30:00",
      "amount": 320.0,
      "merchant": {
        "id": "M009",
        "name": "National Chain Supermarket",
        "category": "Grocery",
        "latitude": 35.57,
        "longitude": -86.045
      },
      "transaction_type": "online",
      "location": {
        "latitude": 35.57,
        "longitude": -86.045,
        "distance_from_home": 15.0
      },
      "device_info": {
        "device_id": "D009",
        "type": "mobile",
        "is_trusted": true
      },
      "authentication": {
        "cvv_provided": true,
        "three_d_secure": "authenticated",
        "attempts": 1
      },
      "is_fraud": false
    },
    {
      "transaction_id": "TX010",
      "timestamp": "2024-10-30 19:00:00",
      "amount": 600.0,
      "merchant": {
        "id": "M010",
        "name": "Online Office Supplies Store",
        "category": "Office Supplies",
        "latitude": 35.0,
        "longitude": -85.0
      },
      "transaction_type": "online",
      "location": {
        "latitude": 35.0,
        "longitude": -85.0,
        "distance_from_home": 150.0
      },
      "device_info": {
        "device_id": "D010",
        "type": "desktop",
        "is_trusted": true
      },
      "authentication": {
        "cvv_provided": true,
        "three_d_secure": "authenticated",
        "attempts": 1
      },
      "is_fraud": false
    }
  ]
}