{
  "user_profile": {
    "user_id": "44645263-f6e0-4842-9b77-920c1ae416d8",
    "archetype": "Small Business Owner",
    "home_address": {
      "latitude": 35.3234,
      "longitude": -117.7271
    },
    "preferred_categories": [
      "Office Supplies",
      "Professional Services",
      "Restaurant",
      "Hardware",
      "Wholesale"
    ],
    "avg_transaction_amount": 1000.0,
    "credit_score": 750
  },
  "transactions": [
    {
      "transaction_id": "TX001",
      "timestamp": "2024-11-02 12:15:00",
      "amount": 250.0,
      "merchant": {
        "id": "M001",
        "name": "Office Supply Depot",
        "category": "Office Supplies",
        "latitude": 35.32,
        "longitude": -117.7
      },
      "transaction_type": "in-person",
      "location": {
        "latitude": 35.32,
        "longitude": -117.7,
        "distance_from_home": 1.5
      },
      "device_info": {
        "device_id": "D001",
        "type": "mobile",
        "is_trusted": true
      },
      "authentication": {
        "cvv_provided": true,
        "three_d_secure": "authenticated",
        "attempts": 1
      },
      "is_fraud": false
    },
    {
      "transaction_id": "TX002",
      "timestamp": "2024-11-03 19:30:00",
      "amount": 75.0,
      "merchant": {
        "id": "M002",
        "name": "Fine Dining Bistro",
        "category": "Restaurant",
        "latitude": 35.325,
        "longitude": -117.71
      },
      "transaction_type": "in-person",
      "location": {
        "latitude": 35.325,
        "longitude": -117.71,
        "distance_from_home": 1.0
      },
      "device_info": {
        "device_id": "D002",
        "type": "mobile",
        "is_trusted": true
      },
      "authentication": {
        "cvv_provided": true,
        "three_d_secure": "authenticated",
        "attempts": 1
      },
      "is_fraud": false
    },
    {
      "transaction_id": "TX003",
      "timestamp": "2024-11-01 14:45:00",
      "amount": 495.0,
      "merchant": {
        "id": "M003",
        "name": "Local Hardware Store",
        "category": "Hardware",
        "latitude": 35.33,
        "longitude": -117.72
      },
      "transaction_type": "in-person",
      "location": {
        "latitude": 35.33,
        "longitude": -117.72,
        "distance_from_home": 3.0
      },
      "device_info": {
        "device_id": "D003",
        "type": "desktop",
        "is_trusted": true
      },
      "authentication": {
        "cvv_provided": true,
        "three_d_secure": "not_authenticated",
        "attempts": 1
      },
      "is_fraud": false
    },
    {
      "transaction_id": "TX004",
      "timestamp": "2024-11-04 16:00:00",
      "amount": 350.0,
      "merchant": {
        "id": "M004",
        "name": "Professional Services Inc.",
        "category": "Professional Services",
        "latitude": 35.31,
        "longitude": -117.75
      },
      "transaction_type": "in-person",
      "location": {
        "latitude": 35.31,
        "longitude": -117.75,
        "distance_from_home": 4.5
      },
      "device_info": {
        "device_id": "D004",
        "type": "tablet",
        "is_trusted": true
      },
      "authentication": {
        "cvv_provided": true,
        "three_d_secure": "authenticated",
        "attempts": 1
      },
      "is_fraud": false
    },
    {
      "transaction_id": "TX005",
      "timestamp": "2024-10-30 11:30:00",
      "amount": 600.0,
      "merchant": {
        "id": "M005",
        "name": "Office Supplies Warehouse",
        "category": "Office Supplies",
        "latitude": 35.34,
        "longitude": -117.73
      },
      "transaction_type": "in-person",
      "location": {
        "latitude": 35.34,
        "longitude": -117.73,
        "distance_from_home": 6.0
      },
      "device_info": {
        "device_id": "D005",
        "type": "mobile",
        "is_trusted": true
      },
      "authentication": {
        "cvv_provided": true,
        "three_d_secure": "not_authenticated",
        "attempts": 1
      },
      "is_fraud": true
    },
    {
      "transaction_id": "TX006",
      "timestamp": "2024-10-29 15:00:00",
      "amount": 150.0,
      "merchant": {
        "id": "M006",
        "name": "Food Truck Fiesta",
        "category": "Restaurant",
        "latitude": 35.335,
        "longitude": -117.74
      },
      "transaction_type": "in-person",
      "location": {
        "latitude": 35.335,
        "longitude": -117.74,
        "distance_from_home": 2.5
      },
      "device_info": {
        "device_id": "D006",
        "type": "mobile",
        "is_trusted": true
      },
      "authentication": {
        "cvv_provided": true,
        "three_d_secure": "authenticated",
        "attempts": 1
      },
      "is_fraud": false
    },
    {
      "transaction_id": "TX007",
      "timestamp": "2024-10-28 10:00:00",
      "amount": 400.0,
      "merchant": {
        "id": "M007",
        "name": "Wholesale Mart",
        "category": "Wholesale",
        "latitude": 35.35,
        "longitude": -117.76
      },
      "transaction_type": "in-person",
      "location": {
        "latitude": 35.35,
        "longitude": -117.76,
        "distance_from_home": 8.0
      },
      "device_info": {
        "device_id": "D007",
        "type": "desktop",
        "is_trusted": true
      },
      "authentication": {
        "cvv_provided": true,
        "three_d_secure": "authenticated",
        "attempts": 1
      },
      "is_fraud": false
    },
    {
      "transaction_id": "TX008",
      "timestamp": "2024-10-27 19:00:00",
      "amount": 220.0,
      "merchant": {
        "id": "M008",
        "name": "Business Supplies Co.",
        "category": "Office Supplies",
        "latitude": 35.36,
        "longitude": -117.77
      },
      "transaction_type": "in-person",
      "location": {
        "latitude": 35.36,
        "longitude": -117.77,
        "distance_from_home": 10.0
      },
      "device_info": {
        "device_id": "D008",
        "type": "tablet",
        "is_trusted": true
      },
      "authentication": {
        "cvv_provided": true,
        "three_d_secure": "authenticated",
        "attempts": 1
      },
      "is_fraud": false
    },
    {
      "transaction_id": "TX009",
      "timestamp": "2024-10-26 13:15:00",
      "amount": 850.0,
      "merchant": {
        "id": "M009",
        "name": "General Contractor Services",
        "category": "Professional Services",
        "latitude": 35.4,
        "longitude": -117.8
      },
      "transaction_type": "in-person",
      "location": {
        "latitude": 35.4,
        "longitude": -117.8,
        "distance_from_home": 25.0
      },
      "device_info": {
        "device_id": "D009",
        "type": "desktop",
        "is_trusted": true
      },
      "authentication": {
        "cvv_provided": true,
        "three_d_secure": "authenticated",
        "attempts": 1
      },
      "is_fraud": false
    },
    {
      "transaction_id": "TX010",
      "timestamp": "2024-10-25 20:00:00",
      "amount": 999.99,
      "merchant": {
        "id": "M010",
        "name": "Tech Supply Online",
        "category": "Office Supplies",
        "latitude": 35.45,
        "longitude": -117.85
      },
      "transaction_type": "online",
      "location": {
        "latitude": 35.45,
        "longitude": -117.85,
        "distance_from_home": 100.0
      },
      "device_info": {
        "device_id": "D010",
        "type": "desktop",
        "is_trusted": false
      },
      "authentication": {
        "cvv_provided": true,
        "three_d_secure": "authenticated",
        "attempts": 1
      },
      "is_fraud": true
    }
  ]
}