{
  "user_profile": {
    "user_id": "527b42bd-4f0c-4296-a1fe-0dc6bf3e917e",
    "archetype": "Frugal Minimalist",
    "home_address": {
      "latitude": 37.63573146210817,
      "longitude": -110.32605241430196
    },
    "preferred_categories": [
      "Grocery",
      "Public Transport",
      "Discount Stores",
      "Utilities"
    ],
    "avg_transaction_amount": 100.0,
    "credit_score": 750
  },
  "transactions": [
    {
      "transaction_id": "TX001",
      "timestamp": "2024-11-01 11:00:00",
      "amount": 45.75,
      "merchant": {
        "id": "M001",
        "name": "Local Market",
        "category": "Grocery",
        "latitude": 37.64,
        "longitude": -110.32
      },
      "transaction_type": "in-person",
      "location": {
        "latitude": 37.64,
        "longitude": -110.32,
        "distance_from_home": 1.5
      },
      "device_info": {
        "device_id": "D001",
        "type": "mobile",
        "is_trusted": true
      },
      "authentication": {
        "cvv_provided": true,
        "three_d_secure": "authenticated",
        "attempts": 1
      },
      "is_fraud": false
    },
    {
      "transaction_id": "TX002",
      "timestamp": "2024-11-02 14:45:00",
      "amount": 25.5,
      "merchant": {
        "id": "M002",
        "name": "Supermarket",
        "category": "Grocery",
        "latitude": 37.638,
        "longitude": -110.322
      },
      "transaction_type": "in-person",
      "location": {
        "latitude": 37.638,
        "longitude": -110.322,
        "distance_from_home": 0.9
      },
      "device_info": {
        "device_id": "D002",
        "type": "mobile",
        "is_trusted": true
      },
      "authentication": {
        "cvv_provided": true,
        "three_d_secure": "authenticated",
        "attempts": 1
      },
      "is_fraud": false
    },
    {
      "transaction_id": "TX003",
      "timestamp": "2024-11-03 17:30:00",
      "amount": 78.0,
      "merchant": {
        "id": "M003",
        "name": "City Bus Service",
        "category": "Public Transport",
        "latitude": 37.65,
        "longitude": -110.33
      },
      "transaction_type": "in-person",
      "location": {
        "latitude": 37.65,
        "longitude": -110.33,
        "distance_from_home": 4.0
      },
      "device_info": {
        "device_id": "D003",
        "type": "mobile",
        "is_trusted": true
      },
      "authentication": {
        "cvv_provided": true,
        "three_d_secure": "authenticated",
        "attempts": 1
      },
      "is_fraud": false
    },
    {
      "transaction_id": "TX004",
      "timestamp": "2024-11-04 09:30:00",
      "amount": 15.99,
      "merchant": {
        "id": "M004",
        "name": "Discount Store",
        "category": "Discount Stores",
        "latitude": 37.637,
        "longitude": -110.325
      },
      "transaction_type": "in-person",
      "location": {
        "latitude": 37.637,
        "longitude": -110.325,
        "distance_from_home": 2.0
      },
      "device_info": {
        "device_id": "D004",
        "type": "mobile",
        "is_trusted": true
      },
      "authentication": {
        "cvv_provided": true,
        "three_d_secure": "authenticated",
        "attempts": 1
      },
      "is_fraud": false
    },
    {
      "transaction_id": "TX005",
      "timestamp": "2024-11-05 12:15:00",
      "amount": 30.0,
      "merchant": {
        "id": "M005",
        "name": "Utility Provider",
        "category": "Utilities",
        "latitude": 37.6365,
        "longitude": -110.328
      },
      "transaction_type": "in-person",
      "location": {
        "latitude": 37.6365,
        "longitude": -110.328,
        "distance_from_home": 3.0
      },
      "device_info": {
        "device_id": "D005",
        "type": "mobile",
        "is_trusted": true
      },
      "authentication": {
        "cvv_provided": true,
        "three_d_secure": "authenticated",
        "attempts": 1
      },
      "is_fraud": false
    },
    {
      "transaction_id": "TX006",
      "timestamp": "2024-11-06 10:00:00",
      "amount": 22.5,
      "merchant": {
        "id": "M006",
        "name": "Local Market",
        "category": "Grocery",
        "latitude": 37.6402,
        "longitude": -110.3212
      },
      "transaction_type": "in-person",
      "location": {
        "latitude": 37.6402,
        "longitude": -110.3212,
        "distance_from_home": 1.7
      },
      "device_info": {
        "device_id": "D006",
        "type": "mobile",
        "is_trusted": true
      },
      "authentication": {
        "cvv_provided": true,
        "three_d_secure": "authenticated",
        "attempts": 1
      },
      "is_fraud": false
    },
    {
      "transaction_id": "TX007",
      "timestamp": "2024-11-07 15:30:00",
      "amount": 49.99,
      "merchant": {
        "id": "M007",
        "name": "Supermarket",
        "category": "Grocery",
        "latitude": 37.639,
        "longitude": -110.3225
      },
      "transaction_type": "in-person",
      "location": {
        "latitude": 37.639,
        "longitude": -110.3225,
        "distance_from_home": 1.8
      },
      "device_info": {
        "device_id": "D007",
        "type": "mobile",
        "is_trusted": true
      },
      "authentication": {
        "cvv_provided": true,
        "three_d_secure": "authenticated",
        "attempts": 1
      },
      "is_fraud": false
    },
    {
      "transaction_id": "TX008",
      "timestamp": "2024-11-08 12:00:00",
      "amount": 68.2,
      "merchant": {
        "id": "M008",
        "name": "Local Utility Company",
        "category": "Utilities",
        "latitude": 37.636,
        "longitude": -110.329
      },
      "transaction_type": "in-person",
      "location": {
        "latitude": 37.636,
        "longitude": -110.329,
        "distance_from_home": 2.5
      },
      "device_info": {
        "device_id": "D008",
        "type": "mobile",
        "is_trusted": true
      },
      "authentication": {
        "cvv_provided": true,
        "three_d_secure": "authenticated",
        "attempts": 1
      },
      "is_fraud": false
    },
    {
      "transaction_id": "TX009",
      "timestamp": "2024-11-09 13:00:00",
      "amount": 99.99,
      "merchant": {
        "id": "M009",
        "name": "Discount Store",
        "category": "Discount Stores",
        "latitude": 37.6375,
        "longitude": -110.324
      },
      "transaction_type": "in-person",
      "location": {
        "latitude": 37.6375,
        "longitude": -110.324,
        "distance_from_home": 2.8
      },
      "device_info": {
        "device_id": "D009",
        "type": "mobile",
        "is_trusted": true
      },
      "authentication": {
        "cvv_provided": true,
        "three_d_secure": "authenticated",
        "attempts": 1
      },
      "is_fraud": false
    },
    {
      "transaction_id": "TX010",
      "timestamp": "2024-11-10 14:15:00",
      "amount": 120.0,
      "merchant": {
        "id": "M010",
        "name": "Green Grocer",
        "category": "Grocery",
        "latitude": 37.63,
        "longitude": -110.3
      },
      "transaction_type": "in-person",
      "location": {
        "latitude": 37.63,
        "longitude": -110.3,
        "distance_from_home": 9.0
      },
      "device_info": {
        "device_id": "D010",
        "type": "mobile",
        "is_trusted": true
      },
      "authentication": {
        "cvv_provided": true,
        "three_d_secure": "authenticated",
        "attempts": 1
      },
      "is_fraud": false
    }
  ]
}