{
  "user_profile": {
    "user_id": "5836edd0-8817-49b0-9905-7b2e0d2c3a6b",
    "archetype": "Luxury Shopper",
    "home_address": {
      "latitude": 37.9469,
      "longitude": -119.0791
    },
    "preferred_categories": [
      "Designer Retail",
      "Fine Dining",
      "Travel",
      "Jewelry",
      "Spa and Beauty"
    ],
    "avg_transaction_amount": 1000.0,
    "credit_score": 750
  },
  "transactions": [
    {
      "transaction_id": "TX001",
      "timestamp": "2024-11-01 12:15:00",
      "amount": 1500.75,
      "merchant": {
        "id": "M001",
        "name": "High-end Department Store",
        "category": "Designer Retail",
        "latitude": 37.95,
        "longitude": -119.07
      },
      "transaction_type": "in-person",
      "location": {
        "latitude": 37.95,
        "longitude": -119.07,
        "distance_from_home": 1.5
      },
      "device_info": {
        "device_id": "D001",
        "type": "mobile",
        "is_trusted": true
      },
      "authentication": {
        "cvv_provided": true,
        "three_d_secure": "authenticated",
        "attempts": 1
      },
      "is_fraud": false
    },
    {
      "transaction_id": "TX002",
      "timestamp": "2024-11-02 20:45:00",
      "amount": 220.4,
      "merchant": {
        "id": "M002",
        "name": "Luxury Brand",
        "category": "Designer Retail",
        "latitude": 37.955,
        "longitude": -119.065
      },
      "transaction_type": "in-person",
      "location": {
        "latitude": 37.955,
        "longitude": -119.065,
        "distance_from_home": 2.5
      },
      "device_info": {
        "device_id": "D002",
        "type": "desktop",
        "is_trusted": true
      },
      "authentication": {
        "cvv_provided": true,
        "three_d_secure": "authenticated",
        "attempts": 1
      },
      "is_fraud": false
    },
    {
      "transaction_id": "TX003",
      "timestamp": "2024-11-03 13:30:00",
      "amount": 780.0,
      "merchant": {
        "id": "M003",
        "name": "Fine Dining Restaurant",
        "category": "Fine Dining",
        "latitude": 37.948,
        "longitude": -119.08
      },
      "transaction_type": "in-person",
      "location": {
        "latitude": 37.948,
        "longitude": -119.08,
        "distance_from_home": 1.0
      },
      "device_info": {
        "device_id": "D003",
        "type": "mobile",
        "is_trusted": true
      },
      "authentication": {
        "cvv_provided": true,
        "three_d_secure": "authenticated",
        "attempts": 1
      },
      "is_fraud": false
    },
    {
      "transaction_id": "TX004",
      "timestamp": "2024-11-03 14:15:00",
      "amount": 450.0,
      "merchant": {
        "id": "M004",
        "name": "Spa and Beauty Center",
        "category": "Spa and Beauty",
        "latitude": 37.951,
        "longitude": -119.072
      },
      "transaction_type": "in-person",
      "location": {
        "latitude": 37.951,
        "longitude": -119.072,
        "distance_from_home": 1.8
      },
      "device_info": {
        "device_id": "D004",
        "type": "mobile",
        "is_trusted": true
      },
      "authentication": {
        "cvv_provided": true,
        "three_d_secure": "authenticated",
        "attempts": 1
      },
      "is_fraud": false
    },
    {
      "transaction_id": "TX005",
      "timestamp": "2024-11-04 18:00:00",
      "amount": 200.99,
      "merchant": {
        "id": "M005",
        "name": "Jewelry Store",
        "category": "Jewelry",
        "latitude": 37.949,
        "longitude": -119.073
      },
      "transaction_type": "in-person",
      "location": {
        "latitude": 37.949,
        "longitude": -119.073,
        "distance_from_home": 1.2
      },
      "device_info": {
        "device_id": "D005",
        "type": "mobile",
        "is_trusted": true
      },
      "authentication": {
        "cvv_provided": true,
        "three_d_secure": "authenticated",
        "attempts": 1
      },
      "is_fraud": false
    },
    {
      "transaction_id": "TX006",
      "timestamp": "2024-11-04 19:15:00",
      "amount": 1250.0,
      "merchant": {
        "id": "M006",
        "name": "Luxury Spa Resort",
        "category": "Spa and Beauty",
        "latitude": 38.0,
        "longitude": -119.0
      },
      "transaction_type": "in-person",
      "location": {
        "latitude": 38.0,
        "longitude": -119.0,
        "distance_from_home": 25.0
      },
      "device_info": {
        "device_id": "D006",
        "type": "mobile",
        "is_trusted": true
      },
      "authentication": {
        "cvv_provided": true,
        "three_d_secure": "authenticated",
        "attempts": 1
      },
      "is_fraud": false
    },
    {
      "transaction_id": "TX007",
      "timestamp": "2024-11-05 15:30:00",
      "amount": 980.5,
      "merchant": {
        "id": "M007",
        "name": "Car Rental Service",
        "category": "Travel",
        "latitude": 37.94,
        "longitude": -119.06
      },
      "transaction_type": "in-person",
      "location": {
        "latitude": 37.94,
        "longitude": -119.06,
        "distance_from_home": 3.0
      },
      "device_info": {
        "device_id": "D007",
        "type": "mobile",
        "is_trusted": true
      },
      "authentication": {
        "cvv_provided": true,
        "three_d_secure": "authenticated",
        "attempts": 1
      },
      "is_fraud": false
    },
    {
      "transaction_id": "TX008",
      "timestamp": "2024-11-06 11:00:00",
      "amount": 3000.0,
      "merchant": {
        "id": "M008",
        "name": "Luxury Hotel",
        "category": "Travel",
        "latitude": 39.0,
        "longitude": -120.0
      },
      "transaction_type": "in-person",
      "location": {
        "latitude": 39.0,
        "longitude": -120.0,
        "distance_from_home": 60.0
      },
      "device_info": {
        "device_id": "D008",
        "type": "desktop",
        "is_trusted": false
      },
      "authentication": {
        "cvv_provided": true,
        "three_d_secure": "not authenticated",
        "attempts": 2
      },
      "is_fraud": true
    },
    {
      "transaction_id": "TX009",
      "timestamp": "2024-11-07 14:45:00",
      "amount": 275.0,
      "merchant": {
        "id": "M009",
        "name": "Designer Retail Outlet",
        "category": "Designer Retail",
        "latitude": 37.9405,
        "longitude": -119.067
      },
      "transaction_type": "online",
      "location": {
        "latitude": 37.9405,
        "longitude": -119.067,
        "distance_from_home": 4.0
      },
      "device_info": {
        "device_id": "D009",
        "type": "mobile",
        "is_trusted": true
      },
      "authentication": {
        "cvv_provided": true,
        "three_d_secure": "authenticated",
        "attempts": 1
      },
      "is_fraud": false
    },
    {
      "transaction_id": "TX010",
      "timestamp": "2024-11-08 19:30:00",
      "amount": 150.5,
      "merchant": {
        "id": "M010",
        "name": "Local Fine Dining",
        "category": "Fine Dining",
        "latitude": 37.946,
        "longitude": -119.078
      },
      "transaction_type": "in-person",
      "location": {
        "latitude": 37.946,
        "longitude": -119.078,
        "distance_from_home": 0.8
      },
      "device_info": {
        "device_id": "D010",
        "type": "mobile",
        "is_trusted": true
      },
      "authentication": {
        "cvv_provided": true,
        "three_d_secure": "authenticated",
        "attempts": 1
      },
      "is_fraud": false
    }
  ]
}