{
  "user_profile": {
    "user_id": "628373d2-7a25-47a7-8b19-3723c363ae49",
    "archetype": "Frugal Minimalist",
    "home_address": {
      "latitude": 36.22610609577289,
      "longitude": -111.48736856686844
    },
    "preferred_categories": [
      "Grocery",
      "Public Transport",
      "Discount Stores",
      "Utilities"
    ],
    "avg_transaction_amount": 100.0,
    "credit_score": 750
  },
  "transactions": [
    {
      "transaction_id": "TX001",
      "timestamp": "2024-10-30 11:15:00",
      "amount": 45.99,
      "merchant": {
        "id": "M001",
        "name": "Local Grocery Store",
        "category": "Grocery",
        "latitude": 36.2301,
        "longitude": -111.49
      },
      "transaction_type": "in-person",
      "location": {
        "latitude": 36.2301,
        "longitude": -111.49,
        "distance_from_home": 2.5
      },
      "device_info": {
        "device_id": "D001",
        "type": "mobile",
        "is_trusted": true
      },
      "authentication": {
        "cvv_provided": true,
        "three_d_secure": "authenticated",
        "attempts": 1
      },
      "is_fraud": false
    },
    {
      "transaction_id": "TX002",
      "timestamp": "2024-10-25 14:50:00",
      "amount": 17.75,
      "merchant": {
        "id": "M002",
        "name": "Bus Station",
        "category": "Public Transport",
        "latitude": 36.229,
        "longitude": -111.485
      },
      "transaction_type": "in-person",
      "location": {
        "latitude": 36.229,
        "longitude": -111.485,
        "distance_from_home": 1.2
      },
      "device_info": {
        "device_id": "D002",
        "type": "mobile",
        "is_trusted": true
      },
      "authentication": {
        "cvv_provided": true,
        "three_d_secure": "authenticated",
        "attempts": 1
      },
      "is_fraud": false
    },
    {
      "transaction_id": "TX003",
      "timestamp": "2024-10-20 12:00:00",
      "amount": 64.5,
      "merchant": {
        "id": "M003",
        "name": "Discount Wholesale Club",
        "category": "Discount Stores",
        "latitude": 36.235,
        "longitude": -111.48
      },
      "transaction_type": "in-person",
      "location": {
        "latitude": 36.235,
        "longitude": -111.48,
        "distance_from_home": 3.0
      },
      "device_info": {
        "device_id": "D003",
        "type": "mobile",
        "is_trusted": true
      },
      "authentication": {
        "cvv_provided": true,
        "three_d_secure": "authenticated",
        "attempts": 1
      },
      "is_fraud": false
    },
    {
      "transaction_id": "TX004",
      "timestamp": "2024-11-01 15:30:00",
      "amount": 28.4,
      "merchant": {
        "id": "M004",
        "name": "Utility Company",
        "category": "Utilities",
        "latitude": 36.228,
        "longitude": -111.482
      },
      "transaction_type": "in-person",
      "location": {
        "latitude": 36.228,
        "longitude": -111.482,
        "distance_from_home": 4.0
      },
      "device_info": {
        "device_id": "D004",
        "type": "mobile",
        "is_trusted": true
      },
      "authentication": {
        "cvv_provided": true,
        "three_d_secure": "authenticated",
        "attempts": 1
      },
      "is_fraud": false
    },
    {
      "transaction_id": "TX005",
      "timestamp": "2024-10-28 10:10:00",
      "amount": 85.6,
      "merchant": {
        "id": "M005",
        "name": "Supermarket",
        "category": "Grocery",
        "latitude": 36.24,
        "longitude": -111.487
      },
      "transaction_type": "in-person",
      "location": {
        "latitude": 36.24,
        "longitude": -111.487,
        "distance_from_home": 5.0
      },
      "device_info": {
        "device_id": "D005",
        "type": "mobile",
        "is_trusted": true
      },
      "authentication": {
        "cvv_provided": true,
        "three_d_secure": "authenticated",
        "attempts": 1
      },
      "is_fraud": false
    },
    {
      "transaction_id": "TX006",
      "timestamp": "2024-11-02 11:45:00",
      "amount": 12.99,
      "merchant": {
        "id": "M006",
        "name": "Local Deli",
        "category": "Grocery",
        "latitude": 36.2265,
        "longitude": -111.488
      },
      "transaction_type": "in-person",
      "location": {
        "latitude": 36.2265,
        "longitude": -111.488,
        "distance_from_home": 0.7
      },
      "device_info": {
        "device_id": "D006",
        "type": "mobile",
        "is_trusted": true
      },
      "authentication": {
        "cvv_provided": true,
        "three_d_secure": "authenticated",
        "attempts": 1
      },
      "is_fraud": false
    },
    {
      "transaction_id": "TX007",
      "timestamp": "2024-10-15 19:00:00",
      "amount": 150.0,
      "merchant": {
        "id": "M007",
        "name": "Home Depot",
        "category": "Discount Stores",
        "latitude": 36.25,
        "longitude": -111.5
      },
      "transaction_type": "in-person",
      "location": {
        "latitude": 36.25,
        "longitude": -111.5,
        "distance_from_home": 9.0
      },
      "device_info": {
        "device_id": "D007",
        "type": "mobile",
        "is_trusted": true
      },
      "authentication": {
        "cvv_provided": true,
        "three_d_secure": "authenticated",
        "attempts": 1
      },
      "is_fraud": false
    },
    {
      "transaction_id": "TX008",
      "timestamp": "2024-10-18 10:05:00",
      "amount": 23.45,
      "merchant": {
        "id": "M008",
        "name": "Gas Station",
        "category": "Utilities",
        "latitude": 36.222,
        "longitude": -111.483
      },
      "transaction_type": "in-person",
      "location": {
        "latitude": 36.222,
        "longitude": -111.483,
        "distance_from_home": 3.5
      },
      "device_info": {
        "device_id": "D008",
        "type": "mobile",
        "is_trusted": true
      },
      "authentication": {
        "cvv_provided": true,
        "three_d_secure": "authenticated",
        "attempts": 1
      },
      "is_fraud": false
    },
    {
      "transaction_id": "TX009",
      "timestamp": "2024-10-29 14:15:00",
      "amount": 78.99,
      "merchant": {
        "id": "M009",
        "name": "Lowe's",
        "category": "Discount Stores",
        "latitude": 36.25,
        "longitude": -111.49
      },
      "transaction_type": "in-person",
      "location": {
        "latitude": 36.25,
        "longitude": -111.49,
        "distance_from_home": 8.0
      },
      "device_info": {
        "device_id": "D009",
        "type": "mobile",
        "is_trusted": true
      },
      "authentication": {
        "cvv_provided": true,
        "three_d_secure": "authenticated",
        "attempts": 1
      },
      "is_fraud": false
    },
    {
      "transaction_id": "TX010",
      "timestamp": "2024-10-31 13:00:00",
      "amount": 13.75,
      "merchant": {
        "id": "M010",
        "name": "Local Bakery",
        "category": "Grocery",
        "latitude": 36.226,
        "longitude": -111.487
      },
      "transaction_type": "in-person",
      "location": {
        "latitude": 36.226,
        "longitude": -111.487,
        "distance_from_home": 0.5
      },
      "device_info": {
        "device_id": "D010",
        "type": "mobile",
        "is_trusted": true
      },
      "authentication": {
        "cvv_provided": true,
        "three_d_secure": "authenticated",
        "attempts": 1
      },
      "is_fraud": false
    }
  ]
}