{
  "user_profile": {
    "user_id": "63e34b14-89ce-453f-aca1-8b7bcef7dd7e",
    "archetype": "Rural Resident",
    "home_address": {
      "latitude": 25.7185,
      "longitude": -81.5935
    },
    "preferred_categories": [
      "Gas",
      "Grocery",
      "Hardware",
      "Agriculture",
      "Automotive"
    ],
    "avg_transaction_amount": 100.0,
    "credit_score": 750
  },
  "transactions": [
    {
      "transaction_id": "TX001",
      "timestamp": "2024-10-01 08:15:00",
      "amount": 45.99,
      "merchant": {
        "id": "M001",
        "name": "Local Gas Station",
        "category": "Gas",
        "latitude": 25.73,
        "longitude": -81.58
      },
      "transaction_type": "in-person",
      "location": {
        "latitude": 25.73,
        "longitude": -81.58,
        "distance_from_home": 2.5
      },
      "device_info": {
        "device_id": "D001",
        "type": "mobile",
        "is_trusted": true
      },
      "authentication": {
        "cvv_provided": true,
        "three_d_secure": "authenticated",
        "attempts": 1
      },
      "is_fraud": false
    },
    {
      "transaction_id": "TX002",
      "timestamp": "2024-10-05 17:20:00",
      "amount": 75.5,
      "merchant": {
        "id": "M002",
        "name": "Grocery Wholesale Club",
        "category": "Grocery",
        "latitude": 25.74,
        "longitude": -81.59
      },
      "transaction_type": "in-person",
      "location": {
        "latitude": 25.74,
        "longitude": -81.59,
        "distance_from_home": 3.0
      },
      "device_info": {
        "device_id": "D002",
        "type": "desktop",
        "is_trusted": true
      },
      "authentication": {
        "cvv_provided": true,
        "three_d_secure": "authenticated",
        "attempts": 1
      },
      "is_fraud": false
    },
    {
      "transaction_id": "TX003",
      "timestamp": "2024-10-10 09:05:00",
      "amount": 120.0,
      "merchant": {
        "id": "M003",
        "name": "Hardware Store",
        "category": "Hardware",
        "latitude": 25.75,
        "longitude": -81.6
      },
      "transaction_type": "in-person",
      "location": {
        "latitude": 25.75,
        "longitude": -81.6,
        "distance_from_home": 4.0
      },
      "device_info": {
        "device_id": "D003",
        "type": "mobile",
        "is_trusted": true
      },
      "authentication": {
        "cvv_provided": true,
        "three_d_secure": "authenticated",
        "attempts": 1
      },
      "is_fraud": false
    },
    {
      "transaction_id": "TX004",
      "timestamp": "2024-10-15 15:45:00",
      "amount": 55.75,
      "merchant": {
        "id": "M004",
        "name": "Auto Repair Shop",
        "category": "Automotive",
        "latitude": 25.72,
        "longitude": -81.61
      },
      "transaction_type": "in-person",
      "location": {
        "latitude": 25.72,
        "longitude": -81.61,
        "distance_from_home": 1.8
      },
      "device_info": {
        "device_id": "D004",
        "type": "mobile",
        "is_trusted": true
      },
      "authentication": {
        "cvv_provided": true,
        "three_d_secure": "authenticated",
        "attempts": 1
      },
      "is_fraud": false
    },
    {
      "transaction_id": "TX005",
      "timestamp": "2024-10-20 18:30:00",
      "amount": 65.0,
      "merchant": {
        "id": "M005",
        "name": "Organic Store",
        "category": "Grocery",
        "latitude": 25.74,
        "longitude": -81.6
      },
      "transaction_type": "in-person",
      "location": {
        "latitude": 25.74,
        "longitude": -81.6,
        "distance_from_home": 3.5
      },
      "device_info": {
        "device_id": "D005",
        "type": "mobile",
        "is_trusted": true
      },
      "authentication": {
        "cvv_provided": true,
        "three_d_secure": "authenticated",
        "attempts": 1
      },
      "is_fraud": false
    },
    {
      "transaction_id": "TX006",
      "timestamp": "2024-10-22 19:10:00",
      "amount": 90.0,
      "merchant": {
        "id": "M006",
        "name": "Car Wash",
        "category": "Automotive",
        "latitude": 25.76,
        "longitude": -81.575
      },
      "transaction_type": "in-person",
      "location": {
        "latitude": 25.76,
        "longitude": -81.575,
        "distance_from_home": 6.0
      },
      "device_info": {
        "device_id": "D006",
        "type": "mobile",
        "is_trusted": true
      },
      "authentication": {
        "cvv_provided": true,
        "three_d_secure": "authenticated",
        "attempts": 1
      },
      "is_fraud": false
    },
    {
      "transaction_id": "TX007",
      "timestamp": "2024-10-25 08:00:00",
      "amount": 150.0,
      "merchant": {
        "id": "M007",
        "name": "Farm Supply Store",
        "category": "Agriculture",
        "latitude": 25.69,
        "longitude": -81.59
      },
      "transaction_type": "in-person",
      "location": {
        "latitude": 25.69,
        "longitude": -81.59,
        "distance_from_home": 8.0
      },
      "device_info": {
        "device_id": "D007",
        "type": "mobile",
        "is_trusted": true
      },
      "authentication": {
        "cvv_provided": true,
        "three_d_secure": "authenticated",
        "attempts": 1
      },
      "is_fraud": false
    },
    {
      "transaction_id": "TX008",
      "timestamp": "2024-10-27 09:25:00",
      "amount": 82.0,
      "merchant": {
        "id": "M008",
        "name": "Truck Stop Diner",
        "category": "Gas",
        "latitude": 25.78,
        "longitude": -81.6
      },
      "transaction_type": "in-person",
      "location": {
        "latitude": 25.78,
        "longitude": -81.6,
        "distance_from_home": 9.0
      },
      "device_info": {
        "device_id": "D008",
        "type": "mobile",
        "is_trusted": true
      },
      "authentication": {
        "cvv_provided": true,
        "three_d_secure": "authenticated",
        "attempts": 1
      },
      "is_fraud": false
    },
    {
      "transaction_id": "TX009",
      "timestamp": "2024-10-30 14:00:00",
      "amount": 200.0,
      "merchant": {
        "id": "M009",
        "name": "Rural Farm Equipment",
        "category": "Agriculture",
        "latitude": 25.8,
        "longitude": -81.65
      },
      "transaction_type": "in-person",
      "location": {
        "latitude": 25.8,
        "longitude": -81.65,
        "distance_from_home": 15.0
      },
      "device_info": {
        "device_id": "D009",
        "type": "mobile",
        "is_trusted": true
      },
      "authentication": {
        "cvv_provided": true,
        "three_d_secure": "authenticated",
        "attempts": 1
      },
      "is_fraud": false
    },
    {
      "transaction_id": "TX010",
      "timestamp": "2024-11-02 16:30:00",
      "amount": 40.0,
      "merchant": {
        "id": "M010",
        "name": "Village Grocery",
        "category": "Grocery",
        "latitude": 25.76,
        "longitude": -81.655
      },
      "transaction_type": "in-person",
      "location": {
        "latitude": 25.76,
        "longitude": -81.655,
        "distance_from_home": 9.5
      },
      "device_info": {
        "device_id": "D010",
        "type": "mobile",
        "is_trusted": true
      },
      "authentication": {
        "cvv_provided": true,
        "three_d_secure": "authenticated",
        "attempts": 1
      },
      "is_fraud": false
    }
  ]
}