{
  "user_profile": {
    "user_id": "69e84d53-d300-488f-80b0-e0914ef04e59",
    "archetype": "Rural Resident",
    "home_address": {
      "latitude": 41.5947,
      "longitude": -80.7878
    },
    "preferred_categories": [
      "Gas",
      "Grocery",
      "Hardware",
      "Agriculture",
      "Automotive"
    ],
    "avg_transaction_amount": 100.0,
    "credit_score": 750
  },
  "transactions": [
    {
      "transaction_id": "TX001",
      "timestamp": "2024-11-01 08:15:00",
      "amount": 45.75,
      "merchant": {
        "id": "M001",
        "name": "Local Gas Station",
        "category": "Gas",
        "latitude": 41.605,
        "longitude": -80.795
      },
      "transaction_type": "in-person",
      "location": {
        "latitude": 41.605,
        "longitude": -80.795,
        "distance_from_home": 3.5
      },
      "device_info": {
        "device_id": "D001",
        "type": "mobile",
        "is_trusted": true
      },
      "authentication": {
        "cvv_provided": true,
        "three_d_secure": "authenticated",
        "attempts": 1
      },
      "is_fraud": false
    },
    {
      "transaction_id": "TX002",
      "timestamp": "2024-11-02 17:45:00",
      "amount": 78.9,
      "merchant": {
        "id": "M002",
        "name": "Supermarket",
        "category": "Grocery",
        "latitude": 41.59,
        "longitude": -80.78
      },
      "transaction_type": "in-person",
      "location": {
        "latitude": 41.59,
        "longitude": -80.78,
        "distance_from_home": 1.0
      },
      "device_info": {
        "device_id": "D002",
        "type": "mobile",
        "is_trusted": true
      },
      "authentication": {
        "cvv_provided": true,
        "three_d_secure": "authenticated",
        "attempts": 1
      },
      "is_fraud": false
    },
    {
      "transaction_id": "TX003",
      "timestamp": "2024-11-03 11:30:00",
      "amount": 120.5,
      "merchant": {
        "id": "M003",
        "name": "Hardware Store",
        "category": "Hardware",
        "latitude": 41.58,
        "longitude": -80.79
      },
      "transaction_type": "in-person",
      "location": {
        "latitude": 41.58,
        "longitude": -80.79,
        "distance_from_home": 2.8
      },
      "device_info": {
        "device_id": "D003",
        "type": "mobile",
        "is_trusted": true
      },
      "authentication": {
        "cvv_provided": true,
        "three_d_secure": "authenticated",
        "attempts": 1
      },
      "is_fraud": false
    },
    {
      "transaction_id": "TX004",
      "timestamp": "2024-11-04 16:00:00",
      "amount": 35.99,
      "merchant": {
        "id": "M004",
        "name": "Local Repair Shop",
        "category": "Automotive",
        "latitude": 41.6,
        "longitude": -80.78
      },
      "transaction_type": "in-person",
      "location": {
        "latitude": 41.6,
        "longitude": -80.78,
        "distance_from_home": 4.2
      },
      "device_info": {
        "device_id": "D004",
        "type": "mobile",
        "is_trusted": true
      },
      "authentication": {
        "cvv_provided": true,
        "three_d_secure": "authenticated",
        "attempts": 1
      },
      "is_fraud": false
    },
    {
      "transaction_id": "TX005",
      "timestamp": "2024-11-05 18:30:00",
      "amount": 90.0,
      "merchant": {
        "id": "M005",
        "name": "Organic Store",
        "category": "Grocery",
        "latitude": 41.61,
        "longitude": -80.81
      },
      "transaction_type": "in-person",
      "location": {
        "latitude": 41.61,
        "longitude": -80.81,
        "distance_from_home": 6.0
      },
      "device_info": {
        "device_id": "D005",
        "type": "mobile",
        "is_trusted": true
      },
      "authentication": {
        "cvv_provided": true,
        "three_d_secure": "authenticated",
        "attempts": 1
      },
      "is_fraud": false
    },
    {
      "transaction_id": "TX006",
      "timestamp": "2024-11-06 19:15:00",
      "amount": 155.75,
      "merchant": {
        "id": "M006",
        "name": "Local Gas Station",
        "category": "Gas",
        "latitude": 41.62,
        "longitude": -80.84
      },
      "transaction_type": "in-person",
      "location": {
        "latitude": 41.62,
        "longitude": -80.84,
        "distance_from_home": 7.0
      },
      "device_info": {
        "device_id": "D006",
        "type": "mobile",
        "is_trusted": true
      },
      "authentication": {
        "cvv_provided": true,
        "three_d_secure": "authenticated",
        "attempts": 1
      },
      "is_fraud": false
    },
    {
      "transaction_id": "TX007",
      "timestamp": "2024-11-07 08:30:00",
      "amount": 50.0,
      "merchant": {
        "id": "M007",
        "name": "Farm Supply Store",
        "category": "Agriculture",
        "latitude": 41.65,
        "longitude": -80.87
      },
      "transaction_type": "in-person",
      "location": {
        "latitude": 41.65,
        "longitude": -80.87,
        "distance_from_home": 9.0
      },
      "device_info": {
        "device_id": "D007",
        "type": "mobile",
        "is_trusted": true
      },
      "authentication": {
        "cvv_provided": true,
        "three_d_secure": "authenticated",
        "attempts": 1
      },
      "is_fraud": false
    },
    {
      "transaction_id": "TX008",
      "timestamp": "2024-11-08 14:00:00",
      "amount": 130.0,
      "merchant": {
        "id": "M008",
        "name": "Auto Parts Store",
        "category": "Automotive",
        "latitude": 41.55,
        "longitude": -80.72
      },
      "transaction_type": "in-person",
      "location": {
        "latitude": 41.55,
        "longitude": -80.72,
        "distance_from_home": 9.7
      },
      "device_info": {
        "device_id": "D008",
        "type": "mobile",
        "is_trusted": true
      },
      "authentication": {
        "cvv_provided": true,
        "three_d_secure": "authenticated",
        "attempts": 1
      },
      "is_fraud": false
    },
    {
      "transaction_id": "TX009",
      "timestamp": "2024-11-09 10:00:00",
      "amount": 200.0,
      "merchant": {
        "id": "M009",
        "name": "Home Improvement Center",
        "category": "Hardware",
        "latitude": 41.75,
        "longitude": -80.9
      },
      "transaction_type": "in-person",
      "location": {
        "latitude": 41.75,
        "longitude": -80.9,
        "distance_from_home": 15.0
      },
      "device_info": {
        "device_id": "D009",
        "type": "mobile",
        "is_trusted": true
      },
      "authentication": {
        "cvv_provided": true,
        "three_d_secure": "authenticated",
        "attempts": 1
      },
      "is_fraud": false
    },
    {
      "transaction_id": "TX010",
      "timestamp": "2024-11-10 12:30:00",
      "amount": 38.0,
      "merchant": {
        "id": "M010",
        "name": "Online Retailer",
        "category": "Grocery",
        "latitude": 0,
        "longitude": 0
      },
      "transaction_type": "online",
      "location": {
        "latitude": 0,
        "longitude": 0,
        "distance_from_home": 0
      },
      "device_info": {
        "device_id": "D010",
        "type": "desktop",
        "is_trusted": true
      },
      "authentication": {
        "cvv_provided": true,
        "three_d_secure": "authenticated",
        "attempts": 1
      },
      "is_fraud": false
    }
  ]
}