{
  "user_profile": {
    "user_id": "6e18b48a-a17e-4492-b8fb-8c9dbeba1f04",
    "archetype": "Rural Resident",
    "home_address": {
      "latitude": 28.6982,
      "longitude": -79.0128
    },
    "preferred_categories": [
      "Gas",
      "Grocery",
      "Hardware",
      "Agriculture",
      "Automotive"
    ],
    "avg_transaction_amount": 100.0,
    "credit_score": 750
  },
  "transactions": [
    {
      "transaction_id": "TX001",
      "timestamp": "2024-10-30 08:15:00",
      "amount": 45.75,
      "merchant": {
        "id": "M001",
        "name": "Quick Stop Gas",
        "category": "Gas",
        "latitude": 28.7,
        "longitude": -79.005
      },
      "transaction_type": "in-person",
      "location": {
        "latitude": 28.7,
        "longitude": -79.005,
        "distance_from_home": 1.2
      },
      "device_info": {
        "device_id": "D001",
        "type": "mobile",
        "is_trusted": true
      },
      "authentication": {
        "cvv_provided": true,
        "three_d_secure": "authenticated",
        "attempts": 1
      },
      "is_fraud": false
    },
    {
      "transaction_id": "TX002",
      "timestamp": "2024-11-01 17:45:00",
      "amount": 85.0,
      "merchant": {
        "id": "M002",
        "name": "Green Valley Grocery",
        "category": "Grocery",
        "latitude": 28.715,
        "longitude": -79.02
      },
      "transaction_type": "in-person",
      "location": {
        "latitude": 28.715,
        "longitude": -79.02,
        "distance_from_home": 3.1
      },
      "device_info": {
        "device_id": "D002",
        "type": "mobile",
        "is_trusted": true
      },
      "authentication": {
        "cvv_provided": true,
        "three_d_secure": "authenticated",
        "attempts": 1
      },
      "is_fraud": false
    },
    {
      "transaction_id": "TX003",
      "timestamp": "2024-11-03 09:00:00",
      "amount": 120.5,
      "merchant": {
        "id": "M003",
        "name": "Farm Supply Co.",
        "category": "Agriculture",
        "latitude": 28.68,
        "longitude": -79.05
      },
      "transaction_type": "in-person",
      "location": {
        "latitude": 28.68,
        "longitude": -79.05,
        "distance_from_home": 4.5
      },
      "device_info": {
        "device_id": "D003",
        "type": "mobile",
        "is_trusted": true
      },
      "authentication": {
        "cvv_provided": true,
        "three_d_secure": "authenticated",
        "attempts": 1
      },
      "is_fraud": false
    },
    {
      "transaction_id": "TX004",
      "timestamp": "2024-10-28 19:30:00",
      "amount": 60.0,
      "merchant": {
        "id": "M004",
        "name": "Local Hardware Store",
        "category": "Hardware",
        "latitude": 28.695,
        "longitude": -79.01
      },
      "transaction_type": "in-person",
      "location": {
        "latitude": 28.695,
        "longitude": -79.01,
        "distance_from_home": 1.8
      },
      "device_info": {
        "device_id": "D004",
        "type": "mobile",
        "is_trusted": true
      },
      "authentication": {
        "cvv_provided": true,
        "three_d_secure": "authenticated",
        "attempts": 1
      },
      "is_fraud": false
    },
    {
      "transaction_id": "TX005",
      "timestamp": "2024-10-29 14:15:00",
      "amount": 75.35,
      "merchant": {
        "id": "M005",
        "name": "Country Car Wash",
        "category": "Automotive",
        "latitude": 28.69,
        "longitude": -79.012
      },
      "transaction_type": "in-person",
      "location": {
        "latitude": 28.69,
        "longitude": -79.012,
        "distance_from_home": 0.5
      },
      "device_info": {
        "device_id": "D005",
        "type": "mobile",
        "is_trusted": true
      },
      "authentication": {
        "cvv_provided": true,
        "three_d_secure": "authenticated",
        "attempts": 1
      },
      "is_fraud": false
    },
    {
      "transaction_id": "TX006",
      "timestamp": "2024-11-02 16:00:00",
      "amount": 200.0,
      "merchant": {
        "id": "M006",
        "name": "Automotive Repair Shop",
        "category": "Automotive",
        "latitude": 28.73,
        "longitude": -79.04
      },
      "transaction_type": "in-person",
      "location": {
        "latitude": 28.73,
        "longitude": -79.04,
        "distance_from_home": 8.0
      },
      "device_info": {
        "device_id": "D006",
        "type": "mobile",
        "is_trusted": true
      },
      "authentication": {
        "cvv_provided": true,
        "three_d_secure": "authenticated",
        "attempts": 1
      },
      "is_fraud": false
    },
    {
      "transaction_id": "TX007",
      "timestamp": "2024-10-31 13:30:00",
      "amount": 99.99,
      "merchant": {
        "id": "M007",
        "name": "Farmers Market",
        "category": "Grocery",
        "latitude": 28.72,
        "longitude": -79.015
      },
      "transaction_type": "in-person",
      "location": {
        "latitude": 28.72,
        "longitude": -79.015,
        "distance_from_home": 3.0
      },
      "device_info": {
        "device_id": "D007",
        "type": "mobile",
        "is_trusted": true
      },
      "authentication": {
        "cvv_provided": true,
        "three_d_secure": "authenticated",
        "attempts": 1
      },
      "is_fraud": false
    },
    {
      "transaction_id": "TX008",
      "timestamp": "2024-10-27 10:00:00",
      "amount": 150.0,
      "merchant": {
        "id": "M008",
        "name": "Supermarket Mart",
        "category": "Grocery",
        "latitude": 28.64,
        "longitude": -79.045
      },
      "transaction_type": "in-person",
      "location": {
        "latitude": 28.64,
        "longitude": -79.045,
        "distance_from_home": 9.0
      },
      "device_info": {
        "device_id": "D008",
        "type": "mobile",
        "is_trusted": true
      },
      "authentication": {
        "cvv_provided": true,
        "three_d_secure": "authenticated",
        "attempts": 1
      },
      "is_fraud": false
    },
    {
      "transaction_id": "TX009",
      "timestamp": "2024-10-26 18:20:00",
      "amount": 130.0,
      "merchant": {
        "id": "M009",
        "name": "Rural Repair Shop",
        "category": "Automotive",
        "latitude": 28.75,
        "longitude": -78.95
      },
      "transaction_type": "in-person",
      "location": {
        "latitude": 28.75,
        "longitude": -78.95,
        "distance_from_home": 25.0
      },
      "device_info": {
        "device_id": "D009",
        "type": "mobile",
        "is_trusted": true
      },
      "authentication": {
        "cvv_provided": true,
        "three_d_secure": "authenticated",
        "attempts": 1
      },
      "is_fraud": false
    },
    {
      "transaction_id": "TX010",
      "timestamp": "2024-11-04 12:30:00",
      "amount": 170.0,
      "merchant": {
        "id": "M010",
        "name": "Country Superstore",
        "category": "Grocery",
        "latitude": 28.68,
        "longitude": -79.05
      },
      "transaction_type": "in-person",
      "location": {
        "latitude": 28.68,
        "longitude": -79.05,
        "distance_from_home": 4.2
      },
      "device_info": {
        "device_id": "D010",
        "type": "mobile",
        "is_trusted": true
      },
      "authentication": {
        "cvv_provided": true,
        "three_d_secure": "authenticated",
        "attempts": 1
      },
      "is_fraud": false
    }
  ]
}