{
  "user_profile": {
    "user_id": "80d1a73c-4bc8-4008-88d9-18d7e31d54e9",
    "archetype": "Tech-Savvy Professional",
    "home_address": {
      "latitude": 29.9451,
      "longitude": -89.6702
    },
    "preferred_categories": [
      "Electronics",
      "Online Services",
      "Restaurant",
      "Entertainment",
      "Travel"
    ],
    "avg_transaction_amount": 100.0,
    "credit_score": 750
  },
  "transactions": [
    {
      "transaction_id": "TX001",
      "timestamp": "2024-11-01 14:45:00",
      "amount": 120.36,
      "merchant": {
        "id": "M001",
        "name": "Tech Gadget Store",
        "category": "Electronics",
        "latitude": 29.95,
        "longitude": -89.68
      },
      "transaction_type": "in-person",
      "location": {
        "latitude": 29.95,
        "longitude": -89.68,
        "distance_from_home": 1.0
      },
      "device_info": {
        "device_id": "D001",
        "type": "mobile",
        "is_trusted": true
      },
      "authentication": {
        "cvv_provided": true,
        "three_d_secure": "authenticated",
        "attempts": 1
      },
      "is_fraud": false
    },
    {
      "transaction_id": "TX002",
      "timestamp": "2024-11-02 16:30:00",
      "amount": 75.0,
      "merchant": {
        "id": "M002",
        "name": "Local Diner",
        "category": "Restaurant",
        "latitude": 29.94,
        "longitude": -89.67
      },
      "transaction_type": "in-person",
      "location": {
        "latitude": 29.94,
        "longitude": -89.67,
        "distance_from_home": 1.5
      },
      "device_info": {
        "device_id": "D002",
        "type": "mobile",
        "is_trusted": true
      },
      "authentication": {
        "cvv_provided": true,
        "three_d_secure": "authenticated",
        "attempts": 1
      },
      "is_fraud": false
    },
    {
      "transaction_id": "TX003",
      "timestamp": "2024-11-03 20:15:00",
      "amount": 250.0,
      "merchant": {
        "id": "M003",
        "name": "Online Software Service",
        "category": "Online Services",
        "latitude": 0.0,
        "longitude": 0.0
      },
      "transaction_type": "online",
      "location": {
        "latitude": 29.9451,
        "longitude": -89.6702,
        "distance_from_home": 0.0
      },
      "device_info": {
        "device_id": "D003",
        "type": "laptop",
        "is_trusted": true
      },
      "authentication": {
        "cvv_provided": true,
        "three_d_secure": "authenticated",
        "attempts": 1
      },
      "is_fraud": false
    },
    {
      "transaction_id": "TX004",
      "timestamp": "2024-11-04 11:00:00",
      "amount": 300.5,
      "merchant": {
        "id": "M004",
        "name": "Airline Travel Agency",
        "category": "Travel",
        "latitude": 29.93,
        "longitude": -89.67
      },
      "transaction_type": "in-person",
      "location": {
        "latitude": 29.93,
        "longitude": -89.67,
        "distance_from_home": 2.0
      },
      "device_info": {
        "device_id": "D004",
        "type": "mobile",
        "is_trusted": true
      },
      "authentication": {
        "cvv_provided": true,
        "three_d_secure": "authenticated",
        "attempts": 1
      },
      "is_fraud": true
    },
    {
      "transaction_id": "TX005",
      "timestamp": "2024-11-06 19:15:00",
      "amount": 89.99,
      "merchant": {
        "id": "M005",
        "name": "Fast Food Chain",
        "category": "Restaurant",
        "latitude": 29.948,
        "longitude": -89.68
      },
      "transaction_type": "in-person",
      "location": {
        "latitude": 29.948,
        "longitude": -89.68,
        "distance_from_home": 0.8
      },
      "device_info": {
        "device_id": "D005",
        "type": "mobile",
        "is_trusted": true
      },
      "authentication": {
        "cvv_provided": true,
        "three_d_secure": "authenticated",
        "attempts": 1
      },
      "is_fraud": false
    },
    {
      "transaction_id": "TX006",
      "timestamp": "2024-11-07 15:45:00",
      "amount": 150.0,
      "merchant": {
        "id": "M006",
        "name": "Cloud Storage Service",
        "category": "Online Services",
        "latitude": 0.0,
        "longitude": 0.0
      },
      "transaction_type": "online",
      "location": {
        "latitude": 29.9451,
        "longitude": -89.6702,
        "distance_from_home": 0.0
      },
      "device_info": {
        "device_id": "D006",
        "type": "tablet",
        "is_trusted": true
      },
      "authentication": {
        "cvv_provided": true,
        "three_d_secure": "authenticated",
        "attempts": 1
      },
      "is_fraud": false
    },
    {
      "transaction_id": "TX007",
      "timestamp": "2024-11-08 12:00:00",
      "amount": 80.0,
      "merchant": {
        "id": "M007",
        "name": "Amusement Park",
        "category": "Entertainment",
        "latitude": 29.96,
        "longitude": -89.69
      },
      "transaction_type": "in-person",
      "location": {
        "latitude": 29.96,
        "longitude": -89.69,
        "distance_from_home": 3.0
      },
      "device_info": {
        "device_id": "D007",
        "type": "mobile",
        "is_trusted": true
      },
      "authentication": {
        "cvv_provided": true,
        "three_d_secure": "authenticated",
        "attempts": 1
      },
      "is_fraud": false
    },
    {
      "transaction_id": "TX008",
      "timestamp": "2024-11-09 18:30:00",
      "amount": 450.0,
      "merchant": {
        "id": "M008",
        "name": "Computer Store",
        "category": "Electronics",
        "latitude": 29.94,
        "longitude": -89.675
      },
      "transaction_type": "in-person",
      "location": {
        "latitude": 29.94,
        "longitude": -89.675,
        "distance_from_home": 4.0
      },
      "device_info": {
        "device_id": "D008",
        "type": "desktop",
        "is_trusted": true
      },
      "authentication": {
        "cvv_provided": true,
        "three_d_secure": "authenticated",
        "attempts": 1
      },
      "is_fraud": true
    },
    {
      "transaction_id": "TX009",
      "timestamp": "2024-11-10 10:00:00",
      "amount": 200.75,
      "merchant": {
        "id": "M009",
        "name": "Online Streaming Service",
        "category": "Online Services",
        "latitude": 0.0,
        "longitude": 0.0
      },
      "transaction_type": "online",
      "location": {
        "latitude": 29.9451,
        "longitude": -89.6702,
        "distance_from_home": 0.0
      },
      "device_info": {
        "device_id": "D009",
        "type": "mobile",
        "is_trusted": true
      },
      "authentication": {
        "cvv_provided": true,
        "three_d_secure": "authenticated",
        "attempts": 1
      },
      "is_fraud": false
    },
    {
      "transaction_id": "TX010",
      "timestamp": "2024-11-11 21:00:00",
      "amount": 350.0,
      "merchant": {
        "id": "M010",
        "name": "Travel Agency",
        "category": "Travel",
        "latitude": 29.93,
        "longitude": -89.64
      },
      "transaction_type": "in-person",
      "location": {
        "latitude": 29.93,
        "longitude": -89.64,
        "distance_from_home": 4.5
      },
      "device_info": {
        "device_id": "D010",
        "type": "mobile",
        "is_trusted": true
      },
      "authentication": {
        "cvv_provided": true,
        "three_d_secure": "authenticated",
        "attempts": 1
      },
      "is_fraud": false
    }
  ]
}