{
  "user_profile": {
    "user_id": "8582bb71-93cc-4570-b3ab-ecb892d20c64",
    "archetype": "Suburban Family",
    "home_address": {
      "latitude": 46.5494,
      "longitude": -76.372
    },
    "preferred_categories": [
      "Grocery",
      "Retail",
      "Gas",
      "Healthcare",
      "Department Stores",
      "Home Improvement"
    ],
    "avg_transaction_amount": 100.0,
    "credit_score": 750
  },
  "transactions": [
    {
      "transaction_id": "TX001",
      "timestamp": "2024-10-28 10:15:00",
      "amount": 85.75,
      "merchant": {
        "id": "M001",
        "name": "Main Street Grocery",
        "category": "Grocery",
        "latitude": 46.5534,
        "longitude": -76.3698
      },
      "transaction_type": "in-person",
      "location": {
        "latitude": 46.5534,
        "longitude": -76.3698,
        "distance_from_home": 2.5
      },
      "device_info": {
        "device_id": "D001",
        "type": "mobile",
        "is_trusted": true
      },
      "authentication": {
        "cvv_provided": true,
        "three_d_secure": "authenticated",
        "attempts": 1
      },
      "is_fraud": false
    },
    {
      "transaction_id": "TX002",
      "timestamp": "2024-10-30 16:45:00",
      "amount": 120.5,
      "merchant": {
        "id": "M002",
        "name": "Home Depot",
        "category": "Home Improvement",
        "latitude": 46.54,
        "longitude": -76.35
      },
      "transaction_type": "in-person",
      "location": {
        "latitude": 46.54,
        "longitude": -76.35,
        "distance_from_home": 4.0
      },
      "device_info": {
        "device_id": "D002",
        "type": "desktop",
        "is_trusted": true
      },
      "authentication": {
        "cvv_provided": true,
        "three_d_secure": "authenticated",
        "attempts": 1
      },
      "is_fraud": false
    },
    {
      "transaction_id": "TX003",
      "timestamp": "2024-11-01 11:30:00",
      "amount": 75.0,
      "merchant": {
        "id": "M003",
        "name": "Super Mart",
        "category": "Grocery",
        "latitude": 46.5405,
        "longitude": -76.3702
      },
      "transaction_type": "in-person",
      "location": {
        "latitude": 46.5405,
        "longitude": -76.3702,
        "distance_from_home": 3.0
      },
      "device_info": {
        "device_id": "D003",
        "type": "mobile",
        "is_trusted": true
      },
      "authentication": {
        "cvv_provided": true,
        "three_d_secure": "authenticated",
        "attempts": 1
      },
      "is_fraud": false
    },
    {
      "transaction_id": "TX004",
      "timestamp": "2024-11-03 09:00:00",
      "amount": 150.25,
      "merchant": {
        "id": "M004",
        "name": "Health Clinic",
        "category": "Healthcare",
        "latitude": 46.551,
        "longitude": -76.3685
      },
      "transaction_type": "in-person",
      "location": {
        "latitude": 46.551,
        "longitude": -76.3685,
        "distance_from_home": 1.5
      },
      "device_info": {
        "device_id": "D004",
        "type": "mobile",
        "is_trusted": true
      },
      "authentication": {
        "cvv_provided": true,
        "three_d_secure": "authenticated",
        "attempts": 1
      },
      "is_fraud": false
    },
    {
      "transaction_id": "TX005",
      "timestamp": "2024-11-04 15:15:00",
      "amount": 95.99,
      "merchant": {
        "id": "M005",
        "name": "Quick Stop Gas Station",
        "category": "Gas",
        "latitude": 46.548,
        "longitude": -76.3725
      },
      "transaction_type": "in-person",
      "location": {
        "latitude": 46.548,
        "longitude": -76.3725,
        "distance_from_home": 1.0
      },
      "device_info": {
        "device_id": "D005",
        "type": "mobile",
        "is_trusted": true
      },
      "authentication": {
        "cvv_provided": true,
        "three_d_secure": "authenticated",
        "attempts": 1
      },
      "is_fraud": false
    },
    {
      "transaction_id": "TX006",
      "timestamp": "2024-10-29 17:30:00",
      "amount": 220.0,
      "merchant": {
        "id": "M006",
        "name": "Target Department Store",
        "category": "Department Stores",
        "latitude": 46.56,
        "longitude": -76.38
      },
      "transaction_type": "in-person",
      "location": {
        "latitude": 46.56,
        "longitude": -76.38,
        "distance_from_home": 6.0
      },
      "device_info": {
        "device_id": "D006",
        "type": "mobile",
        "is_trusted": true
      },
      "authentication": {
        "cvv_provided": true,
        "three_d_secure": "authenticated",
        "attempts": 1
      },
      "is_fraud": false
    },
    {
      "transaction_id": "TX007",
      "timestamp": "2024-11-02 10:00:00",
      "amount": 175.8,
      "merchant": {
        "id": "M007",
        "name": "Local Clothing Store",
        "category": "Retail",
        "latitude": 46.555,
        "longitude": -76.374
      },
      "transaction_type": "in-person",
      "location": {
        "latitude": 46.555,
        "longitude": -76.374,
        "distance_from_home": 3.5
      },
      "device_info": {
        "device_id": "D007",
        "type": "desktop",
        "is_trusted": true
      },
      "authentication": {
        "cvv_provided": true,
        "three_d_secure": "authenticated",
        "attempts": 1
      },
      "is_fraud": false
    },
    {
      "transaction_id": "TX008",
      "timestamp": "2024-11-01 13:45:00",
      "amount": 300.0,
      "merchant": {
        "id": "M008",
        "name": "Home Improvement Center",
        "category": "Home Improvement",
        "latitude": 46.522,
        "longitude": -76.39
      },
      "transaction_type": "in-person",
      "location": {
        "latitude": 46.522,
        "longitude": -76.39,
        "distance_from_home": 8.0
      },
      "device_info": {
        "device_id": "D008",
        "type": "mobile",
        "is_trusted": true
      },
      "authentication": {
        "cvv_provided": true,
        "three_d_secure": "authenticated",
        "attempts": 1
      },
      "is_fraud": false
    },
    {
      "transaction_id": "TX009",
      "timestamp": "2024-11-03 12:30:00",
      "amount": 60.0,
      "merchant": {
        "id": "M009",
        "name": "Garden Center Supplies",
        "category": "Home Improvement",
        "latitude": 46.55,
        "longitude": -76.375
      },
      "transaction_type": "in-person",
      "location": {
        "latitude": 46.55,
        "longitude": -76.375,
        "distance_from_home": 2.0
      },
      "device_info": {
        "device_id": "D009",
        "type": "mobile",
        "is_trusted": true
      },
      "authentication": {
        "cvv_provided": true,
        "three_d_secure": "authenticated",
        "attempts": 1
      },
      "is_fraud": false
    },
    {
      "transaction_id": "TX010",
      "timestamp": "2024-11-05 09:30:00",
      "amount": 350.0,
      "merchant": {
        "id": "M010",
        "name": "Online Sports Store",
        "category": "Retail",
        "latitude": 35.6895,
        "longitude": 139.6917
      },
      "transaction_type": "online",
      "location": {
        "latitude": 35.6895,
        "longitude": 139.6917,
        "distance_from_home": 5000.0
      },
      "device_info": {
        "device_id": "D010",
        "type": "desktop",
        "is_trusted": true
      },
      "authentication": {
        "cvv_provided": true,
        "three_d_secure": "authenticated",
        "attempts": 1
      },
      "is_fraud": false
    }
  ]
}