{
  "user_profile": {
    "user_id": "99440135-d962-42a0-937b-2ab0f47d71ed",
    "archetype": "Frugal Minimalist",
    "home_address": {
      "latitude": 40.5095,
      "longitude": -118.8073
    },
    "preferred_categories": [
      "Grocery",
      "Public Transport",
      "Discount Stores",
      "Utilities"
    ],
    "avg_transaction_amount": 100.0,
    "credit_score": 750
  },
  "transactions": [
    {
      "transaction_id": "TX1001",
      "timestamp": "2024-10-28 11:15:00",
      "amount": 45.0,
      "merchant": {
        "id": "M001",
        "name": "Local Grocery Market",
        "category": "Grocery",
        "latitude": 40.5145,
        "longitude": -118.809
      },
      "transaction_type": "in-person",
      "location": {
        "latitude": 40.5145,
        "longitude": -118.809,
        "distance_from_home": 1.5
      },
      "device_info": {
        "device_id": "D001",
        "type": "mobile",
        "is_trusted": true
      },
      "authentication": {
        "cvv_provided": true,
        "three_d_secure": "authenticated",
        "attempts": 1
      },
      "is_fraud": false
    },
    {
      "transaction_id": "TX1002",
      "timestamp": "2024-10-29 15:30:00",
      "amount": 20.75,
      "merchant": {
        "id": "M002",
        "name": "City Bus Line",
        "category": "Public Transport",
        "latitude": 40.508,
        "longitude": -118.8
      },
      "transaction_type": "in-person",
      "location": {
        "latitude": 40.508,
        "longitude": -118.8,
        "distance_from_home": 0.8
      },
      "device_info": {
        "device_id": "D002",
        "type": "mobile",
        "is_trusted": true
      },
      "authentication": {
        "cvv_provided": true,
        "three_d_secure": "authenticated",
        "attempts": 1
      },
      "is_fraud": false
    },
    {
      "transaction_id": "TX1003",
      "timestamp": "2024-11-01 12:45:00",
      "amount": 99.99,
      "merchant": {
        "id": "M003",
        "name": "Discount Warehouse",
        "category": "Discount Stores",
        "latitude": 40.5,
        "longitude": -118.8005
      },
      "transaction_type": "in-person",
      "location": {
        "latitude": 40.5,
        "longitude": -118.8005,
        "distance_from_home": 3.0
      },
      "device_info": {
        "device_id": "D003",
        "type": "mobile",
        "is_trusted": true
      },
      "authentication": {
        "cvv_provided": true,
        "three_d_secure": "authenticated",
        "attempts": 1
      },
      "is_fraud": false
    },
    {
      "transaction_id": "TX1004",
      "timestamp": "2024-11-02 10:15:00",
      "amount": 35.5,
      "merchant": {
        "id": "M004",
        "name": "Supermarket X",
        "category": "Grocery",
        "latitude": 40.509,
        "longitude": -118.805
      },
      "transaction_type": "in-person",
      "location": {
        "latitude": 40.509,
        "longitude": -118.805,
        "distance_from_home": 0.9
      },
      "device_info": {
        "device_id": "D004",
        "type": "mobile",
        "is_trusted": true
      },
      "authentication": {
        "cvv_provided": true,
        "three_d_secure": "authenticated",
        "attempts": 1
      },
      "is_fraud": false
    },
    {
      "transaction_id": "TX1005",
      "timestamp": "2024-11-03 14:00:00",
      "amount": 75.0,
      "merchant": {
        "id": "M005",
        "name": "Utility Company",
        "category": "Utilities",
        "latitude": 40.51,
        "longitude": -118.806
      },
      "transaction_type": "in-person",
      "location": {
        "latitude": 40.51,
        "longitude": -118.806,
        "distance_from_home": 0.5
      },
      "device_info": {
        "device_id": "D005",
        "type": "mobile",
        "is_trusted": true
      },
      "authentication": {
        "cvv_provided": true,
        "three_d_secure": "authenticated",
        "attempts": 1
      },
      "is_fraud": false
    },
    {
      "transaction_id": "TX1006",
      "timestamp": "2024-11-04 16:30:00",
      "amount": 60.4,
      "merchant": {
        "id": "M006",
        "name": "Local Bulk Foods",
        "category": "Grocery",
        "latitude": 40.501,
        "longitude": -118.802
      },
      "transaction_type": "in-person",
      "location": {
        "latitude": 40.501,
        "longitude": -118.802,
        "distance_from_home": 4.0
      },
      "device_info": {
        "device_id": "D006",
        "type": "mobile",
        "is_trusted": true
      },
      "authentication": {
        "cvv_provided": true,
        "three_d_secure": "authenticated",
        "attempts": 1
      },
      "is_fraud": false
    },
    {
      "transaction_id": "TX1007",
      "timestamp": "2024-11-04 17:00:00",
      "amount": 120.25,
      "merchant": {
        "id": "M007",
        "name": "Discount Retailer",
        "category": "Discount Stores",
        "latitude": 40.52,
        "longitude": -118.815
      },
      "transaction_type": "in-person",
      "location": {
        "latitude": 40.52,
        "longitude": -118.815,
        "distance_from_home": 8.0
      },
      "device_info": {
        "device_id": "D007",
        "type": "mobile",
        "is_trusted": true
      },
      "authentication": {
        "cvv_provided": true,
        "three_d_secure": "authenticated",
        "attempts": 1
      },
      "is_fraud": false
    },
    {
      "transaction_id": "TX1008",
      "timestamp": "2024-11-05 09:45:00",
      "amount": 90.0,
      "merchant": {
        "id": "M008",
        "name": "Grocery Depot",
        "category": "Grocery",
        "latitude": 40.512,
        "longitude": -118.803
      },
      "transaction_type": "in-person",
      "location": {
        "latitude": 40.512,
        "longitude": -118.803,
        "distance_from_home": 2.5
      },
      "device_info": {
        "device_id": "D008",
        "type": "mobile",
        "is_trusted": true
      },
      "authentication": {
        "cvv_provided": true,
        "three_d_secure": "authenticated",
        "attempts": 1
      },
      "is_fraud": false
    },
    {
      "transaction_id": "TX1009",
      "timestamp": "2024-11-05 13:00:00",
      "amount": 30.0,
      "merchant": {
        "id": "M009",
        "name": "City Convenience Store",
        "category": "Grocery",
        "latitude": 40.505,
        "longitude": -118.804
      },
      "transaction_type": "in-person",
      "location": {
        "latitude": 40.505,
        "longitude": -118.804,
        "distance_from_home": 2.0
      },
      "device_info": {
        "device_id": "D009",
        "type": "mobile",
        "is_trusted": true
      },
      "authentication": {
        "cvv_provided": true,
        "three_d_secure": "authenticated",
        "attempts": 1
      },
      "is_fraud": false
    },
    {
      "transaction_id": "TX1010",
      "timestamp": "2024-11-05 14:30:00",
      "amount": 15.25,
      "merchant": {
        "id": "M010",
        "name": "Suburban Superstore",
        "category": "Discount Stores",
        "latitude": 40.5105,
        "longitude": -118.8065
      },
      "transaction_type": "in-person",
      "location": {
        "latitude": 40.5105,
        "longitude": -118.8065,
        "distance_from_home": 1.2
      },
      "device_info": {
        "device_id": "D010",
        "type": "mobile",
        "is_trusted": true
      },
      "authentication": {
        "cvv_provided": true,
        "three_d_secure": "authenticated",
        "attempts": 1
      },
      "is_fraud": false
    }
  ]
}