{
  "user_profile": {
    "user_id": "b2f2fae7-64c7-4753-9381-4108d34821d8",
    "archetype": "Retiree",
    "home_address": {
      "latitude": 40.2671,
      "longitude": -70.4438
    },
    "preferred_categories": [
      "Healthcare",
      "Grocery",
      "Restaurant",
      "Retail",
      "Pharmacy",
      "Home Improvement"
    ],
    "avg_transaction_amount": 100.0,
    "credit_score": 750
  },
  "transactions": [
    {
      "transaction_id": "TX001",
      "timestamp": "2024-10-25 11:15:00",
      "amount": 75.5,
      "merchant": {
        "id": "M001",
        "name": "Local Clinic",
        "category": "Healthcare",
        "latitude": 40.27,
        "longitude": -70.44
      },
      "transaction_type": "in-person",
      "location": {
        "latitude": 40.27,
        "longitude": -70.44,
        "distance_from_home": 1.5
      },
      "device_info": {
        "device_id": "D001",
        "type": "mobile",
        "is_trusted": true
      },
      "authentication": {
        "cvv_provided": true,
        "three_d_secure": "authenticated",
        "attempts": 1
      },
      "is_fraud": false
    },
    {
      "transaction_id": "TX002",
      "timestamp": "2024-10-29 14:45:00",
      "amount": 32.99,
      "merchant": {
        "id": "M002",
        "name": "Pharmacy Plus",
        "category": "Pharmacy",
        "latitude": 40.2685,
        "longitude": -70.444
      },
      "transaction_type": "in-person",
      "location": {
        "latitude": 40.2685,
        "longitude": -70.444,
        "distance_from_home": 0.8
      },
      "device_info": {
        "device_id": "D002",
        "type": "mobile",
        "is_trusted": true
      },
      "authentication": {
        "cvv_provided": true,
        "three_d_secure": "authenticated",
        "attempts": 1
      },
      "is_fraud": false
    },
    {
      "transaction_id": "TX003",
      "timestamp": "2024-10-30 12:00:00",
      "amount": 150.0,
      "merchant": {
        "id": "M003",
        "name": "Fresh Organics Market",
        "category": "Grocery",
        "latitude": 40.26,
        "longitude": -70.45
      },
      "transaction_type": "in-person",
      "location": {
        "latitude": 40.26,
        "longitude": -70.45,
        "distance_from_home": 3.0
      },
      "device_info": {
        "device_id": "D003",
        "type": "mobile",
        "is_trusted": true
      },
      "authentication": {
        "cvv_provided": true,
        "three_d_secure": "authenticated",
        "attempts": 1
      },
      "is_fraud": false
    },
    {
      "transaction_id": "TX004",
      "timestamp": "2024-10-31 09:30:00",
      "amount": 45.75,
      "merchant": {
        "id": "M004",
        "name": "Garden Center Supplies",
        "category": "Home Improvement",
        "latitude": 40.28,
        "longitude": -70.41
      },
      "transaction_type": "in-person",
      "location": {
        "latitude": 40.28,
        "longitude": -70.41,
        "distance_from_home": 4.0
      },
      "device_info": {
        "device_id": "D004",
        "type": "mobile",
        "is_trusted": true
      },
      "authentication": {
        "cvv_provided": true,
        "three_d_secure": "authenticated",
        "attempts": 1
      },
      "is_fraud": false
    },
    {
      "transaction_id": "TX005",
      "timestamp": "2024-11-01 18:00:00",
      "amount": 60.0,
      "merchant": {
        "id": "M005",
        "name": "National Chain Grocery",
        "category": "Grocery",
        "latitude": 40.275,
        "longitude": -70.43
      },
      "transaction_type": "in-person",
      "location": {
        "latitude": 40.275,
        "longitude": -70.43,
        "distance_from_home": 2.5
      },
      "device_info": {
        "device_id": "D005",
        "type": "mobile",
        "is_trusted": true
      },
      "authentication": {
        "cvv_provided": true,
        "three_d_secure": "authenticated",
        "attempts": 1
      },
      "is_fraud": false
    },
    {
      "transaction_id": "TX006",
      "timestamp": "2024-11-02 13:00:00",
      "amount": 95.2,
      "merchant": {
        "id": "M006",
        "name": "Home Decor Boutique",
        "category": "Retail",
        "latitude": 40.29,
        "longitude": -70.46
      },
      "transaction_type": "in-person",
      "location": {
        "latitude": 40.29,
        "longitude": -70.46,
        "distance_from_home": 6.0
      },
      "device_info": {
        "device_id": "D006",
        "type": "mobile",
        "is_trusted": true
      },
      "authentication": {
        "cvv_provided": true,
        "three_d_secure": "authenticated",
        "attempts": 1
      },
      "is_fraud": false
    },
    {
      "transaction_id": "TX007",
      "timestamp": "2024-11-03 16:30:00",
      "amount": 120.0,
      "merchant": {
        "id": "M007",
        "name": "Local Fast Food",
        "category": "Fast Food",
        "latitude": 40.265,
        "longitude": -70.445
      },
      "transaction_type": "in-person",
      "location": {
        "latitude": 40.265,
        "longitude": -70.445,
        "distance_from_home": 1.0
      },
      "device_info": {
        "device_id": "D007",
        "type": "mobile",
        "is_trusted": true
      },
      "authentication": {
        "cvv_provided": true,
        "three_d_secure": "authenticated",
        "attempts": 1
      },
      "is_fraud": false
    },
    {
      "transaction_id": "TX008",
      "timestamp": "2024-11-04 11:00:00",
      "amount": 40.0,
      "merchant": {
        "id": "M008",
        "name": "Wholesale Club",
        "category": "Grocery",
        "latitude": 40.3,
        "longitude": -70.4
      },
      "transaction_type": "in-person",
      "location": {
        "latitude": 40.3,
        "longitude": -70.4,
        "distance_from_home": 8.5
      },
      "device_info": {
        "device_id": "D008",
        "type": "mobile",
        "is_trusted": true
      },
      "authentication": {
        "cvv_provided": true,
        "three_d_secure": "authenticated",
        "attempts": 1
      },
      "is_fraud": false
    },
    {
      "transaction_id": "TX009",
      "timestamp": "2024-11-05 14:00:00",
      "amount": 180.75,
      "merchant": {
        "id": "M009",
        "name": "Department Store",
        "category": "Retail",
        "latitude": 40.35,
        "longitude": -70.49
      },
      "transaction_type": "online",
      "location": {
        "latitude": 40.35,
        "longitude": -70.49,
        "distance_from_home": 40.0
      },
      "device_info": {
        "device_id": "D009",
        "type": "desktop",
        "is_trusted": true
      },
      "authentication": {
        "cvv_provided": true,
        "three_d_secure": "authenticated",
        "attempts": 1
      },
      "is_fraud": false
    },
    {
      "transaction_id": "TX010",
      "timestamp": "2024-11-06 10:00:00",
      "amount": 150.3,
      "merchant": {
        "id": "M010",
        "name": "National Chain Restaurant",
        "category": "Restaurant",
        "latitude": 40.4,
        "longitude": -70.47
      },
      "transaction_type": "in-person",
      "location": {
        "latitude": 40.4,
        "longitude": -70.47,
        "distance_from_home": 45.0
      },
      "device_info": {
        "device_id": "D010",
        "type": "desktop",
        "is_trusted": true
      },
      "authentication": {
        "cvv_provided": true,
        "three_d_secure": "authenticated",
        "attempts": 1
      },
      "is_fraud": false
    }
  ]
}