{
  "user_profile": {
    "user_id": "ba451c2e-01a7-47ea-9c33-6ec027126a09",
    "archetype": "Gig Economy Worker",
    "home_address": {
      "latitude": 27.8729,
      "longitude": -75.5105
    },
    "preferred_categories": [
      "Gas",
      "Restaurant",
      "Grocery",
      "Automotive",
      "Coffee Shops"
    ],
    "avg_transaction_amount": 100.0,
    "credit_score": 750
  },
  "transactions": [
    {
      "transaction_id": "TX001",
      "timestamp": "2024-11-04 08:15:00",
      "amount": 45.75,
      "merchant": {
        "id": "M001",
        "name": "Local Diner",
        "category": "Restaurant",
        "latitude": 27.874,
        "longitude": -75.51
      },
      "transaction_type": "in-person",
      "location": {
        "latitude": 27.874,
        "longitude": -75.51,
        "distance_from_home": 1.1
      },
      "device_info": {
        "device_id": "D001",
        "type": "mobile",
        "is_trusted": true
      },
      "authentication": {
        "cvv_provided": true,
        "three_d_secure": "authenticated",
        "attempts": 1
      },
      "is_fraud": false
    },
    {
      "transaction_id": "TX002",
      "timestamp": "2024-11-03 12:45:00",
      "amount": 112.0,
      "merchant": {
        "id": "M002",
        "name": "Service Station",
        "category": "Gas",
        "latitude": 27.86,
        "longitude": -75.52
      },
      "transaction_type": "in-person",
      "location": {
        "latitude": 27.86,
        "longitude": -75.52,
        "distance_from_home": 4.0
      },
      "device_info": {
        "device_id": "D002",
        "type": "mobile",
        "is_trusted": true
      },
      "authentication": {
        "cvv_provided": true,
        "three_d_secure": "authenticated",
        "attempts": 1
      },
      "is_fraud": false
    },
    {
      "transaction_id": "TX003",
      "timestamp": "2024-10-30 16:30:00",
      "amount": 75.5,
      "merchant": {
        "id": "M003",
        "name": "Local Market",
        "category": "Grocery",
        "latitude": 27.872,
        "longitude": -75.5105
      },
      "transaction_type": "in-person",
      "location": {
        "latitude": 27.872,
        "longitude": -75.5105,
        "distance_from_home": 0.5
      },
      "device_info": {
        "device_id": "D003",
        "type": "mobile",
        "is_trusted": true
      },
      "authentication": {
        "cvv_provided": true,
        "three_d_secure": "authenticated",
        "attempts": 1
      },
      "is_fraud": false
    },
    {
      "transaction_id": "TX004",
      "timestamp": "2024-10-29 11:20:00",
      "amount": 150.0,
      "merchant": {
        "id": "M004",
        "name": "Bakery Cafe",
        "category": "Coffee Shops",
        "latitude": 27.89,
        "longitude": -75.515
      },
      "transaction_type": "in-person",
      "location": {
        "latitude": 27.89,
        "longitude": -75.515,
        "distance_from_home": 3.0
      },
      "device_info": {
        "device_id": "D004",
        "type": "mobile",
        "is_trusted": true
      },
      "authentication": {
        "cvv_provided": true,
        "three_d_secure": "authenticated",
        "attempts": 1
      },
      "is_fraud": false
    },
    {
      "transaction_id": "TX005",
      "timestamp": "2024-10-25 14:00:00",
      "amount": 38.9,
      "merchant": {
        "id": "M005",
        "name": "Food Truck",
        "category": "Restaurant",
        "latitude": 27.8605,
        "longitude": -75.511
      },
      "transaction_type": "in-person",
      "location": {
        "latitude": 27.8605,
        "longitude": -75.511,
        "distance_from_home": 4.2
      },
      "device_info": {
        "device_id": "D005",
        "type": "mobile",
        "is_trusted": true
      },
      "authentication": {
        "cvv_provided": true,
        "three_d_secure": "authenticated",
        "attempts": 1
      },
      "is_fraud": false
    },
    {
      "transaction_id": "TX006",
      "timestamp": "2024-11-01 19:00:00",
      "amount": 22.5,
      "merchant": {
        "id": "M006",
        "name": "Car Wash",
        "category": "Automotive",
        "latitude": 27.85,
        "longitude": -75.53
      },
      "transaction_type": "in-person",
      "location": {
        "latitude": 27.85,
        "longitude": -75.53,
        "distance_from_home": 5.0
      },
      "device_info": {
        "device_id": "D006",
        "type": "mobile",
        "is_trusted": true
      },
      "authentication": {
        "cvv_provided": true,
        "three_d_secure": "authenticated",
        "attempts": 1
      },
      "is_fraud": false
    },
    {
      "transaction_id": "TX007",
      "timestamp": "2024-10-28 09:30:00",
      "amount": 180.2,
      "merchant": {
        "id": "M007",
        "name": "Local Cafe",
        "category": "Coffee Shops",
        "latitude": 27.8725,
        "longitude": -75.51
      },
      "transaction_type": "in-person",
      "location": {
        "latitude": 27.8725,
        "longitude": -75.51,
        "distance_from_home": 0.3
      },
      "device_info": {
        "device_id": "D007",
        "type": "mobile",
        "is_trusted": true
      },
      "authentication": {
        "cvv_provided": true,
        "three_d_secure": "authenticated",
        "attempts": 1
      },
      "is_fraud": false
    },
    {
      "transaction_id": "TX008",
      "timestamp": "2024-10-31 10:00:00",
      "amount": 97.5,
      "merchant": {
        "id": "M008",
        "name": "Wholesale Club",
        "category": "Grocery",
        "latitude": 27.88,
        "longitude": -75.5155
      },
      "transaction_type": "in-person",
      "location": {
        "latitude": 27.88,
        "longitude": -75.5155,
        "distance_from_home": 8.0
      },
      "device_info": {
        "device_id": "D008",
        "type": "mobile",
        "is_trusted": true
      },
      "authentication": {
        "cvv_provided": true,
        "three_d_secure": "authenticated",
        "attempts": 1
      },
      "is_fraud": false
    },
    {
      "transaction_id": "TX009",
      "timestamp": "2024-11-02 20:30:00",
      "amount": 155.0,
      "merchant": {
        "id": "M009",
        "name": "Repair Shop",
        "category": "Automotive",
        "latitude": 27.87,
        "longitude": -75.5
      },
      "transaction_type": "in-person",
      "location": {
        "latitude": 27.87,
        "longitude": -75.5,
        "distance_from_home": 2.5
      },
      "device_info": {
        "device_id": "D009",
        "type": "mobile",
        "is_trusted": true
      },
      "authentication": {
        "cvv_provided": true,
        "three_d_secure": "authenticated",
        "attempts": 1
      },
      "is_fraud": false
    },
    {
      "transaction_id": "TX010",
      "timestamp": "2024-10-26 13:00:00",
      "amount": 125.75,
      "merchant": {
        "id": "M010",
        "name": "Gas Station",
        "category": "Gas",
        "latitude": 27.92,
        "longitude": -75.46
      },
      "transaction_type": "in-person",
      "location": {
        "latitude": 27.92,
        "longitude": -75.46,
        "distance_from_home": 15.0
      },
      "device_info": {
        "device_id": "D010",
        "type": "mobile",
        "is_trusted": true
      },
      "authentication": {
        "cvv_provided": true,
        "three_d_secure": "authenticated",
        "attempts": 1
      },
      "is_fraud": false
    }
  ]
}