{
  "user_profile": {
    "user_id": "c73f57cf-33f7-4322-b2df-d53d48c3dab8",
    "archetype": "Urban Professional",
    "home_address": {
      "latitude": 35.1585,
      "longitude": -118.601
    },
    "preferred_categories": [
      "Restaurant",
      "Transportation",
      "Entertainment",
      "Grocery",
      "Coffee Shops"
    ],
    "avg_transaction_amount": 100.0,
    "credit_score": 750
  },
  "transactions": [
    {
      "transaction_id": "TX001",
      "timestamp": "2024-10-25 08:15:00",
      "amount": 85.5,
      "merchant": {
        "id": "M001",
        "name": "Local Cafe",
        "category": "Coffee Shops",
        "latitude": 35.161,
        "longitude": -118.605
      },
      "transaction_type": "in-person",
      "location": {
        "latitude": 35.161,
        "longitude": -118.605,
        "distance_from_home": 1.0
      },
      "device_info": {
        "device_id": "D001",
        "type": "mobile",
        "is_trusted": true
      },
      "authentication": {
        "cvv_provided": true,
        "three_d_secure": "authenticated",
        "attempts": 1
      },
      "is_fraud": false
    },
    {
      "transaction_id": "TX002",
      "timestamp": "2024-10-26 12:45:00",
      "amount": 95.75,
      "merchant": {
        "id": "M002",
        "name": "Food Truck",
        "category": "Restaurant",
        "latitude": 35.165,
        "longitude": -118.61
      },
      "transaction_type": "in-person",
      "location": {
        "latitude": 35.165,
        "longitude": -118.61,
        "distance_from_home": 2.0
      },
      "device_info": {
        "device_id": "D001",
        "type": "mobile",
        "is_trusted": true
      },
      "authentication": {
        "cvv_provided": true,
        "three_d_secure": "authenticated",
        "attempts": 1
      },
      "is_fraud": false
    },
    {
      "transaction_id": "TX003",
      "timestamp": "2024-10-28 18:30:00",
      "amount": 210.0,
      "merchant": {
        "id": "M003",
        "name": "Fine Dining",
        "category": "Restaurant",
        "latitude": 35.17,
        "longitude": -118.62
      },
      "transaction_type": "in-person",
      "location": {
        "latitude": 35.17,
        "longitude": -118.62,
        "distance_from_home": 4.5
      },
      "device_info": {
        "device_id": "D001",
        "type": "mobile",
        "is_trusted": true
      },
      "authentication": {
        "cvv_provided": true,
        "three_d_secure": "authenticated",
        "attempts": 1
      },
      "is_fraud": false
    },
    {
      "transaction_id": "TX004",
      "timestamp": "2024-10-29 20:00:00",
      "amount": 150.0,
      "merchant": {
        "id": "M004",
        "name": "Amusement Park",
        "category": "Entertainment",
        "latitude": 35.19,
        "longitude": -118.63
      },
      "transaction_type": "in-person",
      "location": {
        "latitude": 35.19,
        "longitude": -118.63,
        "distance_from_home": 8.0
      },
      "device_info": {
        "device_id": "D001",
        "type": "mobile",
        "is_trusted": true
      },
      "authentication": {
        "cvv_provided": true,
        "three_d_secure": "authenticated",
        "attempts": 1
      },
      "is_fraud": false
    },
    {
      "transaction_id": "TX005",
      "timestamp": "2024-10-30 13:30:00",
      "amount": 65.4,
      "merchant": {
        "id": "M005",
        "name": "Local Market",
        "category": "Grocery",
        "latitude": 35.162,
        "longitude": -118.607
      },
      "transaction_type": "in-person",
      "location": {
        "latitude": 35.162,
        "longitude": -118.607,
        "distance_from_home": 1.5
      },
      "device_info": {
        "device_id": "D001",
        "type": "mobile",
        "is_trusted": true
      },
      "authentication": {
        "cvv_provided": true,
        "three_d_secure": "authenticated",
        "attempts": 1
      },
      "is_fraud": false
    },
    {
      "transaction_id": "TX006",
      "timestamp": "2024-10-31 09:00:00",
      "amount": 40.0,
      "merchant": {
        "id": "M006",
        "name": "Local Cafe",
        "category": "Coffee Shops",
        "latitude": 35.1655,
        "longitude": -118.6085
      },
      "transaction_type": "in-person",
      "location": {
        "latitude": 35.1655,
        "longitude": -118.6085,
        "distance_from_home": 2.2
      },
      "device_info": {
        "device_id": "D001",
        "type": "mobile",
        "is_trusted": true
      },
      "authentication": {
        "cvv_provided": true,
        "three_d_secure": "authenticated",
        "attempts": 1
      },
      "is_fraud": false
    },
    {
      "transaction_id": "TX007",
      "timestamp": "2024-11-02 19:45:00",
      "amount": 280.95,
      "merchant": {
        "id": "M007",
        "name": "Transportation Service",
        "category": "Transportation",
        "latitude": 35.155,
        "longitude": -118.6005
      },
      "transaction_type": "in-person",
      "location": {
        "latitude": 35.155,
        "longitude": -118.6005,
        "distance_from_home": 0.5
      },
      "device_info": {
        "device_id": "D001",
        "type": "mobile",
        "is_trusted": true
      },
      "authentication": {
        "cvv_provided": true,
        "three_d_secure": "authenticated",
        "attempts": 1
      },
      "is_fraud": false
    },
    {
      "transaction_id": "TX008",
      "timestamp": "2024-11-03 11:15:00",
      "amount": 150.0,
      "merchant": {
        "id": "M008",
        "name": "Arcade",
        "category": "Entertainment",
        "latitude": 35.1585,
        "longitude": -118.6205
      },
      "transaction_type": "in-person",
      "location": {
        "latitude": 35.1585,
        "longitude": -118.6205,
        "distance_from_home": 3.0
      },
      "device_info": {
        "device_id": "D001",
        "type": "mobile",
        "is_trusted": true
      },
      "authentication": {
        "cvv_provided": true,
        "three_d_secure": "authenticated",
        "attempts": 1
      },
      "is_fraud": true
    },
    {
      "transaction_id": "TX009",
      "timestamp": "2024-11-04 14:30:00",
      "amount": 120.0,
      "merchant": {
        "id": "M009",
        "name": "Organic Store",
        "category": "Grocery",
        "latitude": 35.16,
        "longitude": -118.611
      },
      "transaction_type": "in-person",
      "location": {
        "latitude": 35.16,
        "longitude": -118.611,
        "distance_from_home": 2.0
      },
      "device_info": {
        "device_id": "D001",
        "type": "mobile",
        "is_trusted": true
      },
      "authentication": {
        "cvv_provided": true,
        "three_d_secure": "authenticated",
        "attempts": 1
      },
      "is_fraud": false
    },
    {
      "transaction_id": "TX010",
      "timestamp": "2024-11-05 17:00:00",
      "amount": 300.0,
      "merchant": {
        "id": "M010",
        "name": "Local Market",
        "category": "Grocery",
        "latitude": 35.1595,
        "longitude": -118.6055
      },
      "transaction_type": "in-person",
      "location": {
        "latitude": 35.1595,
        "longitude": -118.6055,
        "distance_from_home": 1.7
      },
      "device_info": {
        "device_id": "D001",
        "type": "mobile",
        "is_trusted": true
      },
      "authentication": {
        "cvv_provided": true,
        "three_d_secure": "authenticated",
        "attempts": 1
      },
      "is_fraud": false
    }
  ]
}