{
  "user_profile": {
    "user_id": "c8dd7284-3761-4717-954c-acf837c19058",
    "archetype": "Digital Nomad",
    "home_address": {
      "latitude": 33.2635,
      "longitude": -104.8013
    },
    "preferred_categories": [
      "Travel",
      "Coffee Shops",
      "Co-working",
      "Online Services",
      "Restaurant"
    ],
    "avg_transaction_amount": 100.0,
    "credit_score": 750
  },
  "transactions": [
    {
      "transaction_id": "TX001",
      "timestamp": "2024-10-31 14:15:00",
      "amount": 75.5,
      "merchant": {
        "id": "M001",
        "name": "Cloud Caf\u00e9",
        "category": "Coffee Shops",
        "latitude": 33.27,
        "longitude": -104.795
      },
      "transaction_type": "in-person",
      "location": {
        "latitude": 33.27,
        "longitude": -104.795,
        "distance_from_home": 1.5
      },
      "device_info": {
        "device_id": "D001",
        "type": "mobile",
        "is_trusted": true
      },
      "authentication": {
        "cvv_provided": true,
        "three_d_secure": "authenticated",
        "attempts": 1
      },
      "is_fraud": false
    },
    {
      "transaction_id": "TX002",
      "timestamp": "2024-10-29 11:45:00",
      "amount": 120.0,
      "merchant": {
        "id": "M002",
        "name": "Mountain View Hotel",
        "category": "Hotel",
        "latitude": 33.245,
        "longitude": -104.81
      },
      "transaction_type": "in-person",
      "location": {
        "latitude": 33.245,
        "longitude": -104.81,
        "distance_from_home": 8.0
      },
      "device_info": {
        "device_id": "D002",
        "type": "laptop",
        "is_trusted": true
      },
      "authentication": {
        "cvv_provided": true,
        "three_d_secure": "authenticated",
        "attempts": 1
      },
      "is_fraud": false
    },
    {
      "transaction_id": "TX003",
      "timestamp": "2024-11-02 18:30:00",
      "amount": 45.99,
      "merchant": {
        "id": "M003",
        "name": "Techie Software Service",
        "category": "Online Services",
        "latitude": 33.267,
        "longitude": -104.8
      },
      "transaction_type": "online",
      "location": {
        "latitude": 33.267,
        "longitude": -104.8,
        "distance_from_home": 2.0
      },
      "device_info": {
        "device_id": "D003",
        "type": "mobile",
        "is_trusted": true
      },
      "authentication": {
        "cvv_provided": true,
        "three_d_secure": "authenticated",
        "attempts": 1
      },
      "is_fraud": false
    },
    {
      "transaction_id": "TX004",
      "timestamp": "2024-11-04 12:00:00",
      "amount": 299.99,
      "merchant": {
        "id": "M004",
        "name": "Airline Co.",
        "category": "Travel",
        "latitude": 40.7128,
        "longitude": -74.006
      },
      "transaction_type": "online",
      "location": {
        "latitude": 40.7128,
        "longitude": -74.006,
        "distance_from_home": 1500.0
      },
      "device_info": {
        "device_id": "D004",
        "type": "desktop",
        "is_trusted": false
      },
      "authentication": {
        "cvv_provided": false,
        "three_d_secure": "not_authenticated",
        "attempts": 2
      },
      "is_fraud": true
    },
    {
      "transaction_id": "TX005",
      "timestamp": "2024-10-30 09:00:00",
      "amount": 30.0,
      "merchant": {
        "id": "M005",
        "name": "Food Truck Fiesta",
        "category": "Food Truck",
        "latitude": 33.2705,
        "longitude": -104.79
      },
      "transaction_type": "in-person",
      "location": {
        "latitude": 33.2705,
        "longitude": -104.79,
        "distance_from_home": 1.2
      },
      "device_info": {
        "device_id": "D005",
        "type": "mobile",
        "is_trusted": true
      },
      "authentication": {
        "cvv_provided": true,
        "three_d_secure": "authenticated",
        "attempts": 1
      },
      "is_fraud": false
    },
    {
      "transaction_id": "TX006",
      "timestamp": "2024-10-28 15:30:00",
      "amount": 85.75,
      "merchant": {
        "id": "M006",
        "name": "Co-Working Space 101",
        "category": "Co-working",
        "latitude": 33.262,
        "longitude": -104.805
      },
      "transaction_type": "in-person",
      "location": {
        "latitude": 33.262,
        "longitude": -104.805,
        "distance_from_home": 0.8
      },
      "device_info": {
        "device_id": "D006",
        "type": "mobile",
        "is_trusted": true
      },
      "authentication": {
        "cvv_provided": true,
        "three_d_secure": "authenticated",
        "attempts": 1
      },
      "is_fraud": false
    },
    {
      "transaction_id": "TX007",
      "timestamp": "2024-10-27 10:30:00",
      "amount": 250.0,
      "merchant": {
        "id": "M007",
        "name": "National Chain Restaurant",
        "category": "Restaurant",
        "latitude": 33.26,
        "longitude": -104.8005
      },
      "transaction_type": "in-person",
      "location": {
        "latitude": 33.26,
        "longitude": -104.8005,
        "distance_from_home": 1.0
      },
      "device_info": {
        "device_id": "D007",
        "type": "mobile",
        "is_trusted": false
      },
      "authentication": {
        "cvv_provided": true,
        "three_d_secure": "authenticated",
        "attempts": 1
      },
      "is_fraud": true
    },
    {
      "transaction_id": "TX008",
      "timestamp": "2024-11-01 16:00:00",
      "amount": 150.25,
      "merchant": {
        "id": "M008",
        "name": "Local Bakery Cafe",
        "category": "Bakery Cafe",
        "latitude": 33.265,
        "longitude": -104.8025
      },
      "transaction_type": "in-person",
      "location": {
        "latitude": 33.265,
        "longitude": -104.8025,
        "distance_from_home": 3.0
      },
      "device_info": {
        "device_id": "D008",
        "type": "tablet",
        "is_trusted": true
      },
      "authentication": {
        "cvv_provided": true,
        "three_d_secure": "authenticated",
        "attempts": 1
      },
      "is_fraud": false
    },
    {
      "transaction_id": "TX009",
      "timestamp": "2024-11-03 14:00:00",
      "amount": 60.0,
      "merchant": {
        "id": "M009",
        "name": "Cloud Storage Service",
        "category": "Online Services",
        "latitude": 33.2675,
        "longitude": -104.799
      },
      "transaction_type": "online",
      "location": {
        "latitude": 33.2675,
        "longitude": -104.799,
        "distance_from_home": 2.5
      },
      "device_info": {
        "device_id": "D009",
        "type": "mobile",
        "is_trusted": true
      },
      "authentication": {
        "cvv_provided": true,
        "three_d_secure": "authenticated",
        "attempts": 1
      },
      "is_fraud": false
    },
    {
      "transaction_id": "TX010",
      "timestamp": "2024-10-25 17:00:00",
      "amount": 90.0,
      "merchant": {
        "id": "M010",
        "name": "Chain Coffee Shop",
        "category": "Coffee Shops",
        "latitude": 33.272,
        "longitude": -104.788
      },
      "transaction_type": "in-person",
      "location": {
        "latitude": 33.272,
        "longitude": -104.788,
        "distance_from_home": 2.7
      },
      "device_info": {
        "device_id": "D010",
        "type": "mobile",
        "is_trusted": true
      },
      "authentication": {
        "cvv_provided": true,
        "three_d_secure": "authenticated",
        "attempts": 1
      },
      "is_fraud": false
    }
  ]
}