{
  "user_profile": {
    "user_id": "cdc4ebd9-09d6-4e2c-821b-54b4cf4d9799",
    "archetype": "Frugal Minimalist",
    "home_address": {
      "latitude": 40.165,
      "longitude": -82.2031
    },
    "preferred_categories": [
      "Grocery",
      "Public Transport",
      "Discount Stores",
      "Utilities"
    ],
    "avg_transaction_amount": 100.0,
    "credit_score": 750
  },
  "transactions": [
    {
      "transaction_id": "TX001",
      "timestamp": "2024-10-31 14:00:00",
      "amount": 45.95,
      "merchant": {
        "id": "M001",
        "name": "Local Supermarket",
        "category": "Grocery",
        "latitude": 40.167,
        "longitude": -82.201
      },
      "transaction_type": "in-person",
      "location": {
        "latitude": 40.167,
        "longitude": -82.201,
        "distance_from_home": 2.0
      },
      "device_info": {
        "device_id": "D001",
        "type": "mobile",
        "is_trusted": true
      },
      "authentication": {
        "cvv_provided": true,
        "three_d_secure": "authenticated",
        "attempts": 1
      },
      "is_fraud": false
    },
    {
      "transaction_id": "TX002",
      "timestamp": "2024-10-29 11:15:00",
      "amount": 75.0,
      "merchant": {
        "id": "M002",
        "name": "Discount Store",
        "category": "Discount Stores",
        "latitude": 40.16,
        "longitude": -82.195
      },
      "transaction_type": "in-person",
      "location": {
        "latitude": 40.16,
        "longitude": -82.195,
        "distance_from_home": 4.3
      },
      "device_info": {
        "device_id": "D002",
        "type": "mobile",
        "is_trusted": true
      },
      "authentication": {
        "cvv_provided": true,
        "three_d_secure": "authenticated",
        "attempts": 1
      },
      "is_fraud": false
    },
    {
      "transaction_id": "TX003",
      "timestamp": "2024-10-27 16:45:00",
      "amount": 12.5,
      "merchant": {
        "id": "M003",
        "name": "Local Market",
        "category": "Grocery",
        "latitude": 40.17,
        "longitude": -82.2005
      },
      "transaction_type": "in-person",
      "location": {
        "latitude": 40.17,
        "longitude": -82.2005,
        "distance_from_home": 3.0
      },
      "device_info": {
        "device_id": "D003",
        "type": "mobile",
        "is_trusted": true
      },
      "authentication": {
        "cvv_provided": true,
        "three_d_secure": "authenticated",
        "attempts": 1
      },
      "is_fraud": false
    },
    {
      "transaction_id": "TX004",
      "timestamp": "2024-10-26 09:30:00",
      "amount": 60.75,
      "merchant": {
        "id": "M004",
        "name": "Utility Provider",
        "category": "Utilities",
        "latitude": 40.175,
        "longitude": -82.205
      },
      "transaction_type": "online",
      "location": {
        "latitude": 40.175,
        "longitude": -82.205,
        "distance_from_home": 3.5
      },
      "device_info": {
        "device_id": "D004",
        "type": "mobile",
        "is_trusted": true
      },
      "authentication": {
        "cvv_provided": true,
        "three_d_secure": "authenticated",
        "attempts": 1
      },
      "is_fraud": false
    },
    {
      "transaction_id": "TX005",
      "timestamp": "2024-10-30 12:15:00",
      "amount": 22.99,
      "merchant": {
        "id": "M005",
        "name": "Bus Service",
        "category": "Public Transport",
        "latitude": 40.18,
        "longitude": -82.21
      },
      "transaction_type": "in-person",
      "location": {
        "latitude": 40.18,
        "longitude": -82.21,
        "distance_from_home": 6.0
      },
      "device_info": {
        "device_id": "D005",
        "type": "mobile",
        "is_trusted": true
      },
      "authentication": {
        "cvv_provided": true,
        "three_d_secure": "authenticated",
        "attempts": 1
      },
      "is_fraud": false
    },
    {
      "transaction_id": "TX006",
      "timestamp": "2024-10-25 18:00:00",
      "amount": 88.4,
      "merchant": {
        "id": "M006",
        "name": "Grocery Store",
        "category": "Grocery",
        "latitude": 40.164,
        "longitude": -82.208
      },
      "transaction_type": "in-person",
      "location": {
        "latitude": 40.164,
        "longitude": -82.208,
        "distance_from_home": 2.5
      },
      "device_info": {
        "device_id": "D006",
        "type": "mobile",
        "is_trusted": true
      },
      "authentication": {
        "cvv_provided": true,
        "three_d_secure": "authenticated",
        "attempts": 1
      },
      "is_fraud": false
    },
    {
      "transaction_id": "TX007",
      "timestamp": "2024-10-24 15:30:00",
      "amount": 38.99,
      "merchant": {
        "id": "M007",
        "name": "Utility Provider",
        "category": "Utilities",
        "latitude": 40.172,
        "longitude": -82.197
      },
      "transaction_type": "online",
      "location": {
        "latitude": 40.172,
        "longitude": -82.197,
        "distance_from_home": 4.0
      },
      "device_info": {
        "device_id": "D007",
        "type": "mobile",
        "is_trusted": true
      },
      "authentication": {
        "cvv_provided": true,
        "three_d_secure": "authenticated",
        "attempts": 1
      },
      "is_fraud": false
    },
    {
      "transaction_id": "TX008",
      "timestamp": "2024-10-23 10:00:00",
      "amount": 54.25,
      "merchant": {
        "id": "M008",
        "name": "Local Grocery",
        "category": "Grocery",
        "latitude": 40.162,
        "longitude": -82.205
      },
      "transaction_type": "in-person",
      "location": {
        "latitude": 40.162,
        "longitude": -82.205,
        "distance_from_home": 2.2
      },
      "device_info": {
        "device_id": "D008",
        "type": "mobile",
        "is_trusted": true
      },
      "authentication": {
        "cvv_provided": true,
        "three_d_secure": "authenticated",
        "attempts": 1
      },
      "is_fraud": false
    },
    {
      "transaction_id": "TX009",
      "timestamp": "2024-10-22 14:30:00",
      "amount": 92.1,
      "merchant": {
        "id": "M009",
        "name": "Discount Store",
        "category": "Discount Stores",
        "latitude": 40.155,
        "longitude": -82.21
      },
      "transaction_type": "in-person",
      "location": {
        "latitude": 40.155,
        "longitude": -82.21,
        "distance_from_home": 7.0
      },
      "device_info": {
        "device_id": "D009",
        "type": "mobile",
        "is_trusted": true
      },
      "authentication": {
        "cvv_provided": true,
        "three_d_secure": "authenticated",
        "attempts": 1
      },
      "is_fraud": false
    },
    {
      "transaction_id": "TX010",
      "timestamp": "2024-10-21 10:15:00",
      "amount": 34.15,
      "merchant": {
        "id": "M010",
        "name": "Local Market",
        "category": "Grocery",
        "latitude": 40.1755,
        "longitude": -82.2
      },
      "transaction_type": "in-person",
      "location": {
        "latitude": 40.1755,
        "longitude": -82.2,
        "distance_from_home": 3.8
      },
      "device_info": {
        "device_id": "D010",
        "type": "mobile",
        "is_trusted": true
      },
      "authentication": {
        "cvv_provided": true,
        "three_d_secure": "authenticated",
        "attempts": 1
      },
      "is_fraud": false
    }
  ]
}