{
  "user_profile": {
    "user_id": "d1f53a24-c359-4447-adaf-90ce3db85faa",
    "archetype": "Tech-Savvy Professional",
    "home_address": {
      "latitude": 39.1378,
      "longitude": -84.3959
    },
    "preferred_categories": [
      "Electronics",
      "Online Services",
      "Restaurant",
      "Entertainment",
      "Travel"
    ],
    "avg_transaction_amount": 100.0,
    "credit_score": 750
  },
  "transactions": [
    {
      "transaction_id": "TX001",
      "timestamp": "2024-11-01 14:15:00",
      "amount": 120.5,
      "merchant": {
        "id": "M001",
        "name": "Electronics Retailer",
        "category": "Electronics",
        "latitude": 39.15,
        "longitude": -84.4
      },
      "transaction_type": "in-person",
      "location": {
        "latitude": 39.15,
        "longitude": -84.4,
        "distance_from_home": 3.0
      },
      "device_info": {
        "device_id": "D001",
        "type": "mobile",
        "is_trusted": true
      },
      "authentication": {
        "cvv_provided": true,
        "three_d_secure": "authenticated",
        "attempts": 1
      },
      "is_fraud": false
    },
    {
      "transaction_id": "TX002",
      "timestamp": "2024-11-02 18:45:00",
      "amount": 75.0,
      "merchant": {
        "id": "M002",
        "name": "Cloud Storage",
        "category": "Online Services",
        "latitude": 39.1378,
        "longitude": -84.3959
      },
      "transaction_type": "online",
      "location": {
        "latitude": 39.1378,
        "longitude": -84.3959,
        "distance_from_home": 0.0
      },
      "device_info": {
        "device_id": "D002",
        "type": "laptop",
        "is_trusted": true
      },
      "authentication": {
        "cvv_provided": true,
        "three_d_secure": "not_auth",
        "attempts": 0
      },
      "is_fraud": true
    },
    {
      "transaction_id": "TX003",
      "timestamp": "2024-11-03 21:05:00",
      "amount": 250.0,
      "merchant": {
        "id": "M003",
        "name": "Concert Venue",
        "category": "Entertainment",
        "latitude": 39.145,
        "longitude": -84.395
      },
      "transaction_type": "in-person",
      "location": {
        "latitude": 39.145,
        "longitude": -84.395,
        "distance_from_home": 1.5
      },
      "device_info": {
        "device_id": "D003",
        "type": "mobile",
        "is_trusted": true
      },
      "authentication": {
        "cvv_provided": true,
        "three_d_secure": "authenticated",
        "attempts": 1
      },
      "is_fraud": false
    },
    {
      "transaction_id": "TX004",
      "timestamp": "2024-11-04 11:30:00",
      "amount": 95.0,
      "merchant": {
        "id": "M004",
        "name": "Fast Food",
        "category": "Restaurant",
        "latitude": 39.14,
        "longitude": -84.4005
      },
      "transaction_type": "in-person",
      "location": {
        "latitude": 39.14,
        "longitude": -84.4005,
        "distance_from_home": 2.0
      },
      "device_info": {
        "device_id": "D004",
        "type": "mobile",
        "is_trusted": true
      },
      "authentication": {
        "cvv_provided": true,
        "three_d_secure": "authenticated",
        "attempts": 1
      },
      "is_fraud": false
    },
    {
      "transaction_id": "TX005",
      "timestamp": "2024-11-05 19:00:00",
      "amount": 320.0,
      "merchant": {
        "id": "M005",
        "name": "Hotel",
        "category": "Travel",
        "latitude": 39.1505,
        "longitude": -84.405
      },
      "transaction_type": "in-person",
      "location": {
        "latitude": 39.1505,
        "longitude": -84.405,
        "distance_from_home": 4.0
      },
      "device_info": {
        "device_id": "D005",
        "type": "mobile",
        "is_trusted": true
      },
      "authentication": {
        "cvv_provided": true,
        "three_d_secure": "authenticated",
        "attempts": 1
      },
      "is_fraud": false
    },
    {
      "transaction_id": "TX006",
      "timestamp": "2024-11-06 15:30:00",
      "amount": 200.0,
      "merchant": {
        "id": "M006",
        "name": "Computer Store",
        "category": "Electronics",
        "latitude": 39.138,
        "longitude": -84.396
      },
      "transaction_type": "in-person",
      "location": {
        "latitude": 39.138,
        "longitude": -84.396,
        "distance_from_home": 0.5
      },
      "device_info": {
        "device_id": "D006",
        "type": "mobile",
        "is_trusted": true
      },
      "authentication": {
        "cvv_provided": true,
        "three_d_secure": "authenticated",
        "attempts": 1
      },
      "is_fraud": false
    },
    {
      "transaction_id": "TX007",
      "timestamp": "2024-11-07 08:30:00",
      "amount": 60.0,
      "merchant": {
        "id": "M007",
        "name": "Amusement Park",
        "category": "Entertainment",
        "latitude": 39.16,
        "longitude": -84.39
      },
      "transaction_type": "in-person",
      "location": {
        "latitude": 39.16,
        "longitude": -84.39,
        "distance_from_home": 6.0
      },
      "device_info": {
        "device_id": "D007",
        "type": "mobile",
        "is_trusted": true
      },
      "authentication": {
        "cvv_provided": true,
        "three_d_secure": "authenticated",
        "attempts": 1
      },
      "is_fraud": false
    },
    {
      "transaction_id": "TX008",
      "timestamp": "2024-11-08 19:45:00",
      "amount": 480.0,
      "merchant": {
        "id": "M008",
        "name": "Car Rental",
        "category": "Travel",
        "latitude": 39.1455,
        "longitude": -84.399
      },
      "transaction_type": "in-person",
      "location": {
        "latitude": 39.1455,
        "longitude": -84.399,
        "distance_from_home": 3.5
      },
      "device_info": {
        "device_id": "D008",
        "type": "mobile",
        "is_trusted": false
      },
      "authentication": {
        "cvv_provided": true,
        "three_d_secure": "not_auth",
        "attempts": 2
      },
      "is_fraud": true
    },
    {
      "transaction_id": "TX009",
      "timestamp": "2024-11-09 12:00:00",
      "amount": 150.0,
      "merchant": {
        "id": "M009",
        "name": "Digital Content",
        "category": "Online Services",
        "latitude": 39.1378,
        "longitude": -84.3959
      },
      "transaction_type": "online",
      "location": {
        "latitude": 39.1378,
        "longitude": -84.3959,
        "distance_from_home": 0.0
      },
      "device_info": {
        "device_id": "D009",
        "type": "laptop",
        "is_trusted": true
      },
      "authentication": {
        "cvv_provided": true,
        "three_d_secure": "authenticated",
        "attempts": 1
      },
      "is_fraud": false
    },
    {
      "transaction_id": "TX010",
      "timestamp": "2024-11-10 20:00:00",
      "amount": 300.0,
      "merchant": {
        "id": "M010",
        "name": "Food Truck",
        "category": "Restaurant",
        "latitude": 39.14,
        "longitude": -84.402
      },
      "transaction_type": "in-person",
      "location": {
        "latitude": 39.14,
        "longitude": -84.402,
        "distance_from_home": 2.5
      },
      "device_info": {
        "device_id": "D010",
        "type": "mobile",
        "is_trusted": true
      },
      "authentication": {
        "cvv_provided": true,
        "three_d_secure": "authenticated",
        "attempts": 1
      },
      "is_fraud": false
    }
  ]
}