{
  "user_profile": {
    "user_id": "e2a389d4-13fc-44dc-9839-3247747f7a34",
    "archetype": "Luxury Shopper",
    "home_address": {
      "latitude": 37.8904,
      "longitude": -114.6766
    },
    "preferred_categories": [
      "Designer Retail",
      "Fine Dining",
      "Travel",
      "Jewelry",
      "Spa and Beauty"
    ],
    "avg_transaction_amount": 1000.0,
    "credit_score": 750
  },
  "transactions": [
    {
      "transaction_id": "TX001",
      "timestamp": "2024-11-01 12:15:00",
      "amount": 850.75,
      "merchant": {
        "id": "M001",
        "name": "Luxury Brand",
        "category": "Designer Retail",
        "latitude": 37.895,
        "longitude": -114.671
      },
      "transaction_type": "in-person",
      "location": {
        "latitude": 37.895,
        "longitude": -114.671,
        "distance_from_home": 3.5
      },
      "device_info": {
        "device_id": "D001",
        "type": "mobile",
        "is_trusted": true
      },
      "authentication": {
        "cvv_provided": true,
        "three_d_secure": "authenticated",
        "attempts": 1
      },
      "is_fraud": false
    },
    {
      "transaction_id": "TX002",
      "timestamp": "2024-11-02 13:45:00",
      "amount": 1250.0,
      "merchant": {
        "id": "M002",
        "name": "Designer Boutique",
        "category": "Designer Retail",
        "latitude": 37.891,
        "longitude": -114.674
      },
      "transaction_type": "in-person",
      "location": {
        "latitude": 37.891,
        "longitude": -114.674,
        "distance_from_home": 4.2
      },
      "device_info": {
        "device_id": "D002",
        "type": "mobile",
        "is_trusted": true
      },
      "authentication": {
        "cvv_provided": true,
        "three_d_secure": "authenticated",
        "attempts": 1
      },
      "is_fraud": false
    },
    {
      "transaction_id": "TX003",
      "timestamp": "2024-11-03 18:30:00",
      "amount": 300.0,
      "merchant": {
        "id": "M003",
        "name": "Fine Dining Restaurant",
        "category": "Fine Dining",
        "latitude": 37.894,
        "longitude": -114.662
      },
      "transaction_type": "in-person",
      "location": {
        "latitude": 37.894,
        "longitude": -114.662,
        "distance_from_home": 6.0
      },
      "device_info": {
        "device_id": "D003",
        "type": "mobile",
        "is_trusted": true
      },
      "authentication": {
        "cvv_provided": true,
        "three_d_secure": "authenticated",
        "attempts": 1
      },
      "is_fraud": false
    },
    {
      "transaction_id": "TX004",
      "timestamp": "2024-11-04 19:15:00",
      "amount": 1800.5,
      "merchant": {
        "id": "M004",
        "name": "Spa Retreat",
        "category": "Spa and Beauty",
        "latitude": 37.889,
        "longitude": -114.67
      },
      "transaction_type": "in-person",
      "location": {
        "latitude": 37.889,
        "longitude": -114.67,
        "distance_from_home": 2.9
      },
      "device_info": {
        "device_id": "D004",
        "type": "mobile",
        "is_trusted": true
      },
      "authentication": {
        "cvv_provided": true,
        "three_d_secure": "authenticated",
        "attempts": 1
      },
      "is_fraud": false
    },
    {
      "transaction_id": "TX005",
      "timestamp": "2024-11-05 12:00:00",
      "amount": 245.0,
      "merchant": {
        "id": "M005",
        "name": "Luxury Jewelry Store",
        "category": "Jewelry",
        "latitude": 37.87,
        "longitude": -114.69
      },
      "transaction_type": "in-person",
      "location": {
        "latitude": 37.87,
        "longitude": -114.69,
        "distance_from_home": 8.0
      },
      "device_info": {
        "device_id": "D005",
        "type": "mobile",
        "is_trusted": true
      },
      "authentication": {
        "cvv_provided": true,
        "three_d_secure": "authenticated",
        "attempts": 1
      },
      "is_fraud": false
    },
    {
      "transaction_id": "TX006",
      "timestamp": "2024-11-06 11:00:00",
      "amount": 575.0,
      "merchant": {
        "id": "M006",
        "name": "Airline Ticket",
        "category": "Travel",
        "latitude": 37.85,
        "longitude": -114.7
      },
      "transaction_type": "online",
      "location": {
        "latitude": 37.85,
        "longitude": -114.7,
        "distance_from_home": 50.0
      },
      "device_info": {
        "device_id": "D006",
        "type": "laptop",
        "is_trusted": true
      },
      "authentication": {
        "cvv_provided": true,
        "three_d_secure": "authenticated",
        "attempts": 1
      },
      "is_fraud": false
    },
    {
      "transaction_id": "TX007",
      "timestamp": "2024-11-07 14:00:00",
      "amount": 1290.0,
      "merchant": {
        "id": "M007",
        "name": "Car Rental Service",
        "category": "Travel",
        "latitude": 37.9,
        "longitude": -114.75
      },
      "transaction_type": "in-person",
      "location": {
        "latitude": 37.9,
        "longitude": -114.75,
        "distance_from_home": 10.5
      },
      "device_info": {
        "device_id": "D007",
        "type": "mobile",
        "is_trusted": true
      },
      "authentication": {
        "cvv_provided": true,
        "three_d_secure": "authenticated",
        "attempts": 1
      },
      "is_fraud": false
    },
    {
      "transaction_id": "TX008",
      "timestamp": "2024-11-08 19:30:00",
      "amount": 600.0,
      "merchant": {
        "id": "M008",
        "name": "Beauty Supply Store",
        "category": "Spa and Beauty",
        "latitude": 37.892,
        "longitude": -114.682
      },
      "transaction_type": "in-person",
      "location": {
        "latitude": 37.892,
        "longitude": -114.682,
        "distance_from_home": 5.3
      },
      "device_info": {
        "device_id": "D008",
        "type": "mobile",
        "is_trusted": true
      },
      "authentication": {
        "cvv_provided": true,
        "three_d_secure": "authenticated",
        "attempts": 1
      },
      "is_fraud": true
    },
    {
      "transaction_id": "TX009",
      "timestamp": "2024-11-09 16:45:00",
      "amount": 720.5,
      "merchant": {
        "id": "M009",
        "name": "Spa and Wellness Center",
        "category": "Spa and Beauty",
        "latitude": 37.885,
        "longitude": -114.678
      },
      "transaction_type": "in-person",
      "location": {
        "latitude": 37.885,
        "longitude": -114.678,
        "distance_from_home": 4.0
      },
      "device_info": {
        "device_id": "D009",
        "type": "mobile",
        "is_trusted": true
      },
      "authentication": {
        "cvv_provided": true,
        "three_d_secure": "authenticated",
        "attempts": 1
      },
      "is_fraud": false
    },
    {
      "transaction_id": "TX010",
      "timestamp": "2024-11-10 11:00:00",
      "amount": 1100.0,
      "merchant": {
        "id": "M010",
        "name": "Designer Retailer Online",
        "category": "Designer Retail",
        "latitude": 37.8,
        "longitude": -114.6
      },
      "transaction_type": "online",
      "location": {
        "latitude": 37.8,
        "longitude": -114.6,
        "distance_from_home": 60.0
      },
      "device_info": {
        "device_id": "D010",
        "type": "laptop",
        "is_trusted": true
      },
      "authentication": {
        "cvv_provided": true,
        "three_d_secure": "authenticated",
        "attempts": 1
      },
      "is_fraud": true
    }
  ]
}