{
  "user_profile": {
    "user_id": "e93de45e-eabc-4999-ba02-62ff494b795e",
    "archetype": "Luxury Shopper",
    "home_address": {
      "latitude": 38.4551,
      "longitude": -81.2983
    },
    "preferred_categories": [
      "Designer Retail",
      "Fine Dining",
      "Travel",
      "Jewelry",
      "Spa and Beauty"
    ],
    "avg_transaction_amount": 1000.0,
    "credit_score": 750
  },
  "transactions": [
    {
      "transaction_id": "TX001",
      "timestamp": "2024-10-31 12:45:00",
      "amount": 450.0,
      "merchant": {
        "id": "M001",
        "name": "Luxury Brand Store",
        "category": "Designer Retail",
        "latitude": 38.46,
        "longitude": -81.29
      },
      "transaction_type": "in-person",
      "location": {
        "latitude": 38.46,
        "longitude": -81.29,
        "distance_from_home": 2.5
      },
      "device_info": {
        "device_id": "D001",
        "type": "mobile",
        "is_trusted": true
      },
      "authentication": {
        "cvv_provided": true,
        "three_d_secure": "authenticated",
        "attempts": 1
      },
      "is_fraud": false
    },
    {
      "transaction_id": "TX002",
      "timestamp": "2024-11-01 19:30:00",
      "amount": 1200.0,
      "merchant": {
        "id": "M002",
        "name": "High-end Department Store",
        "category": "Designer Retail",
        "latitude": 38.451,
        "longitude": -81.295
      },
      "transaction_type": "in-person",
      "location": {
        "latitude": 38.451,
        "longitude": -81.295,
        "distance_from_home": 3.0
      },
      "device_info": {
        "device_id": "D002",
        "type": "mobile",
        "is_trusted": true
      },
      "authentication": {
        "cvv_provided": true,
        "three_d_secure": "authenticated",
        "attempts": 1
      },
      "is_fraud": false
    },
    {
      "transaction_id": "TX003",
      "timestamp": "2024-10-25 14:00:00",
      "amount": 750.0,
      "merchant": {
        "id": "M003",
        "name": "Fine Dining Restaurant",
        "category": "Fine Dining",
        "latitude": 38.458,
        "longitude": -81.3
      },
      "transaction_type": "in-person",
      "location": {
        "latitude": 38.458,
        "longitude": -81.3,
        "distance_from_home": 1.5
      },
      "device_info": {
        "device_id": "D003",
        "type": "mobile",
        "is_trusted": true
      },
      "authentication": {
        "cvv_provided": true,
        "three_d_secure": "authenticated",
        "attempts": 1
      },
      "is_fraud": false
    },
    {
      "transaction_id": "TX004",
      "timestamp": "2024-11-02 11:10:00",
      "amount": 250.0,
      "merchant": {
        "id": "M004",
        "name": "Spa and Beauty Salon",
        "category": "Spa and Beauty",
        "latitude": 38.4595,
        "longitude": -81.292
      },
      "transaction_type": "in-person",
      "location": {
        "latitude": 38.4595,
        "longitude": -81.292,
        "distance_from_home": 2.2
      },
      "device_info": {
        "device_id": "D004",
        "type": "mobile",
        "is_trusted": true
      },
      "authentication": {
        "cvv_provided": true,
        "three_d_secure": "authenticated",
        "attempts": 1
      },
      "is_fraud": false
    },
    {
      "transaction_id": "TX005",
      "timestamp": "2024-10-28 20:15:00",
      "amount": 950.0,
      "merchant": {
        "id": "M005",
        "name": "Travel Airline",
        "category": "Travel",
        "latitude": 38.5,
        "longitude": -81.3
      },
      "transaction_type": "online",
      "location": {
        "latitude": 38.5,
        "longitude": -81.3,
        "distance_from_home": 30.0
      },
      "device_info": {
        "device_id": "D005",
        "type": "mobile",
        "is_trusted": true
      },
      "authentication": {
        "cvv_provided": true,
        "three_d_secure": "authenticated",
        "attempts": 1
      },
      "is_fraud": false
    },
    {
      "transaction_id": "TX006",
      "timestamp": "2024-10-20 13:30:00",
      "amount": 300.0,
      "merchant": {
        "id": "M006",
        "name": "Jewelry Boutique",
        "category": "Jewelry",
        "latitude": 38.4555,
        "longitude": -81.2905
      },
      "transaction_type": "in-person",
      "location": {
        "latitude": 38.4555,
        "longitude": -81.2905,
        "distance_from_home": 1.0
      },
      "device_info": {
        "device_id": "D006",
        "type": "mobile",
        "is_trusted": true
      },
      "authentication": {
        "cvv_provided": true,
        "three_d_secure": "authenticated",
        "attempts": 1
      },
      "is_fraud": true
    },
    {
      "transaction_id": "TX007",
      "timestamp": "2024-10-15 17:00:00",
      "amount": 600.0,
      "merchant": {
        "id": "M007",
        "name": "Luxury Brand Store",
        "category": "Designer Retail",
        "latitude": 38.49,
        "longitude": -81.305
      },
      "transaction_type": "in-person",
      "location": {
        "latitude": 38.49,
        "longitude": -81.305,
        "distance_from_home": 8.0
      },
      "device_info": {
        "device_id": "D007",
        "type": "mobile",
        "is_trusted": true
      },
      "authentication": {
        "cvv_provided": true,
        "three_d_secure": "authenticated",
        "attempts": 1
      },
      "is_fraud": false
    },
    {
      "transaction_id": "TX008",
      "timestamp": "2024-10-12 11:15:00",
      "amount": 1100.0,
      "merchant": {
        "id": "M008",
        "name": "Fine Dining Restaurant",
        "category": "Fine Dining",
        "latitude": 38.461,
        "longitude": -81.294
      },
      "transaction_type": "in-person",
      "location": {
        "latitude": 38.461,
        "longitude": -81.294,
        "distance_from_home": 3.4
      },
      "device_info": {
        "device_id": "D008",
        "type": "mobile",
        "is_trusted": true
      },
      "authentication": {
        "cvv_provided": true,
        "three_d_secure": "authenticated",
        "attempts": 1
      },
      "is_fraud": false
    },
    {
      "transaction_id": "TX009",
      "timestamp": "2024-11-03 18:00:00",
      "amount": 2000.0,
      "merchant": {
        "id": "M009",
        "name": "Luxury Car Rental",
        "category": "Travel",
        "latitude": 38.47,
        "longitude": -81.3
      },
      "transaction_type": "online",
      "location": {
        "latitude": 38.47,
        "longitude": -81.3,
        "distance_from_home": 20.0
      },
      "device_info": {
        "device_id": "D009",
        "type": "desktop",
        "is_trusted": false
      },
      "authentication": {
        "cvv_provided": true,
        "three_d_secure": "not_authenticated",
        "attempts": 2
      },
      "is_fraud": true
    },
    {
      "transaction_id": "TX010",
      "timestamp": "2024-10-29 15:50:00",
      "amount": 850.0,
      "merchant": {
        "id": "M010",
        "name": "Beauty Supply Store",
        "category": "Spa and Beauty",
        "latitude": 38.465,
        "longitude": -81.295
      },
      "transaction_type": "in-person",
      "location": {
        "latitude": 38.465,
        "longitude": -81.295,
        "distance_from_home": 4.5
      },
      "device_info": {
        "device_id": "D010",
        "type": "mobile",
        "is_trusted": true
      },
      "authentication": {
        "cvv_provided": true,
        "three_d_secure": "authenticated",
        "attempts": 1
      },
      "is_fraud": false
    }
  ]
}