{
  "user_profile": {
    "user_id": "f921be68-042a-41fa-ac0f-1510138a3bab",
    "archetype": "Luxury Shopper",
    "home_address": {
      "latitude": 38.2076,
      "longitude": -122.3528
    },
    "preferred_categories": [
      "Designer Retail",
      "Fine Dining",
      "Travel",
      "Jewelry",
      "Spa and Beauty"
    ],
    "avg_transaction_amount": 1200.0,
    "credit_score": 750
  },
  "transactions": [
    {
      "transaction_id": "TX001",
      "timestamp": "2024-11-05 12:15:00",
      "amount": 850.0,
      "merchant": {
        "id": "M001",
        "name": "Luxury Designer Boutique",
        "category": "Designer Retail",
        "latitude": 38.205,
        "longitude": -122.35
      },
      "transaction_type": "in-person",
      "location": {
        "latitude": 38.205,
        "longitude": -122.35,
        "distance_from_home": 1.5
      },
      "device_info": {
        "device_id": "D001",
        "type": "mobile",
        "is_trusted": true
      },
      "authentication": {
        "cvv_provided": true,
        "three_d_secure": "authenticated",
        "attempts": 1
      },
      "is_fraud": false
    },
    {
      "transaction_id": "TX002",
      "timestamp": "2024-11-04 19:30:00",
      "amount": 1500.0,
      "merchant": {
        "id": "M002",
        "name": "Exclusive Spa",
        "category": "Spa and Beauty",
        "latitude": 38.2085,
        "longitude": -122.355
      },
      "transaction_type": "in-person",
      "location": {
        "latitude": 38.2085,
        "longitude": -122.355,
        "distance_from_home": 0.8
      },
      "device_info": {
        "device_id": "D002",
        "type": "mobile",
        "is_trusted": true
      },
      "authentication": {
        "cvv_provided": true,
        "three_d_secure": "authenticated",
        "attempts": 1
      },
      "is_fraud": false
    },
    {
      "transaction_id": "TX003",
      "timestamp": "2024-11-03 13:45:00",
      "amount": 300.0,
      "merchant": {
        "id": "M003",
        "name": "Fine Dining Restaurant",
        "category": "Fine Dining",
        "latitude": 38.206,
        "longitude": -122.3515
      },
      "transaction_type": "in-person",
      "location": {
        "latitude": 38.206,
        "longitude": -122.3515,
        "distance_from_home": 1.2
      },
      "device_info": {
        "device_id": "D003",
        "type": "mobile",
        "is_trusted": true
      },
      "authentication": {
        "cvv_provided": true,
        "three_d_secure": "authenticated",
        "attempts": 1
      },
      "is_fraud": false
    },
    {
      "transaction_id": "TX004",
      "timestamp": "2024-11-01 16:00:00",
      "amount": 1200.0,
      "merchant": {
        "id": "M004",
        "name": "High-end Department Store",
        "category": "Designer Retail",
        "latitude": 38.21,
        "longitude": -122.358
      },
      "transaction_type": "in-person",
      "location": {
        "latitude": 38.21,
        "longitude": -122.358,
        "distance_from_home": 3.0
      },
      "device_info": {
        "device_id": "D004",
        "type": "mobile",
        "is_trusted": false
      },
      "authentication": {
        "cvv_provided": true,
        "three_d_secure": "authenticated",
        "attempts": 1
      },
      "is_fraud": true
    },
    {
      "transaction_id": "TX005",
      "timestamp": "2024-10-30 11:30:00",
      "amount": 450.0,
      "merchant": {
        "id": "M005",
        "name": "Luxury Jewelry Store",
        "category": "Jewelry",
        "latitude": 38.2078,
        "longitude": -122.3535
      },
      "transaction_type": "in-person",
      "location": {
        "latitude": 38.2078,
        "longitude": -122.3535,
        "distance_from_home": 0.7
      },
      "device_info": {
        "device_id": "D005",
        "type": "mobile",
        "is_trusted": true
      },
      "authentication": {
        "cvv_provided": true,
        "three_d_secure": "authenticated",
        "attempts": 1
      },
      "is_fraud": false
    },
    {
      "transaction_id": "TX006",
      "timestamp": "2024-10-28 15:00:00",
      "amount": 700.0,
      "merchant": {
        "id": "M006",
        "name": "Car Rental Service",
        "category": "Travel",
        "latitude": 39.0,
        "longitude": -123.0
      },
      "transaction_type": "in-person",
      "location": {
        "latitude": 39.0,
        "longitude": -123.0,
        "distance_from_home": 45.0
      },
      "device_info": {
        "device_id": "D006",
        "type": "mobile",
        "is_trusted": true
      },
      "authentication": {
        "cvv_provided": true,
        "three_d_secure": "authenticated",
        "attempts": 1
      },
      "is_fraud": false
    },
    {
      "transaction_id": "TX007",
      "timestamp": "2024-10-25 18:00:00",
      "amount": 1900.0,
      "merchant": {
        "id": "M007",
        "name": "Designer Travel Agency",
        "category": "Travel",
        "latitude": 37.7749,
        "longitude": -122.4194
      },
      "transaction_type": "online",
      "location": {
        "latitude": 37.7749,
        "longitude": -122.4194,
        "distance_from_home": 80.0
      },
      "device_info": {
        "device_id": "D007",
        "type": "desktop",
        "is_trusted": true
      },
      "authentication": {
        "cvv_provided": true,
        "three_d_secure": "authenticated",
        "attempts": 1
      },
      "is_fraud": false
    },
    {
      "transaction_id": "TX008",
      "timestamp": "2024-10-20 14:30:00",
      "amount": 1200.0,
      "merchant": {
        "id": "M008",
        "name": "Signature Salon",
        "category": "Spa and Beauty",
        "latitude": 38.207,
        "longitude": -122.352
      },
      "transaction_type": "in-person",
      "location": {
        "latitude": 38.207,
        "longitude": -122.352,
        "distance_from_home": 0.5
      },
      "device_info": {
        "device_id": "D008",
        "type": "mobile",
        "is_trusted": true
      },
      "authentication": {
        "cvv_provided": true,
        "three_d_secure": "authenticated",
        "attempts": 1
      },
      "is_fraud": false
    },
    {
      "transaction_id": "TX009",
      "timestamp": "2024-10-15 20:00:00",
      "amount": 2000.0,
      "merchant": {
        "id": "M009",
        "name": "Luxury Fashion Outlet",
        "category": "Designer Retail",
        "latitude": 38.215,
        "longitude": -122.36
      },
      "transaction_type": "in-person",
      "location": {
        "latitude": 38.215,
        "longitude": -122.36,
        "distance_from_home": 4.0
      },
      "device_info": {
        "device_id": "D009",
        "type": "mobile",
        "is_trusted": true
      },
      "authentication": {
        "cvv_provided": true,
        "three_d_secure": "authenticated",
        "attempts": 1
      },
      "is_fraud": false
    },
    {
      "transaction_id": "TX010",
      "timestamp": "2024-10-10 10:00:00",
      "amount": 600.0,
      "merchant": {
        "id": "M010",
        "name": "High-end Jewelry Shop",
        "category": "Jewelry",
        "latitude": 38.203,
        "longitude": -122.354
      },
      "transaction_type": "in-person",
      "location": {
        "latitude": 38.203,
        "longitude": -122.354,
        "distance_from_home": 2.0
      },
      "device_info": {
        "device_id": "D010",
        "type": "mobile",
        "is_trusted": true
      },
      "authentication": {
        "cvv_provided": true,
        "three_d_secure": "authenticated",
        "attempts": 1
      },
      "is_fraud": false
    }
  ]
}