{
  "user_profile": {
    "user_id": "fa09dd6d-c9ea-4fc6-a53a-7c471eb98d00",
    "archetype": "Small Business Owner",
    "home_address": {
      "latitude": 32.6695,
      "longitude": -98.4152
    },
    "preferred_categories": [
      "Office Supplies",
      "Professional Services",
      "Restaurant",
      "Hardware",
      "Wholesale"
    ],
    "avg_transaction_amount": 555.0,
    "credit_score": 750
  },
  "transactions": [
    {
      "transaction_id": "TX001",
      "timestamp": "2024-10-30 09:15:00",
      "amount": 450.75,
      "merchant": {
        "id": "M001",
        "name": "Office Supply Co.",
        "category": "Office Supplies",
        "latitude": 32.68,
        "longitude": -98.42
      },
      "transaction_type": "in-person",
      "location": {
        "latitude": 32.68,
        "longitude": -98.42,
        "distance_from_home": 1.2
      },
      "device_info": {
        "device_id": "D001",
        "type": "mobile",
        "is_trusted": true
      },
      "authentication": {
        "cvv_provided": true,
        "three_d_secure": "authenticated",
        "attempts": 1
      },
      "is_fraud": false
    },
    {
      "transaction_id": "TX002",
      "timestamp": "2024-11-01 12:45:00",
      "amount": 315.5,
      "merchant": {
        "id": "M002",
        "name": "Fine Dining Restaurant",
        "category": "Restaurant",
        "latitude": 32.675,
        "longitude": -98.41
      },
      "transaction_type": "in-person",
      "location": {
        "latitude": 32.675,
        "longitude": -98.41,
        "distance_from_home": 1.8
      },
      "device_info": {
        "device_id": "D002",
        "type": "tablet",
        "is_trusted": true
      },
      "authentication": {
        "cvv_provided": true,
        "three_d_secure": "authenticated",
        "attempts": 1
      },
      "is_fraud": false
    },
    {
      "transaction_id": "TX003",
      "timestamp": "2024-11-03 17:30:00",
      "amount": 220.0,
      "merchant": {
        "id": "M003",
        "name": "National Chain Hardware Store",
        "category": "Hardware",
        "latitude": 32.67,
        "longitude": -98.45
      },
      "transaction_type": "in-person",
      "location": {
        "latitude": 32.67,
        "longitude": -98.45,
        "distance_from_home": 3.0
      },
      "device_info": {
        "device_id": "D003",
        "type": "mobile",
        "is_trusted": true
      },
      "authentication": {
        "cvv_provided": true,
        "three_d_secure": "authenticated",
        "attempts": 1
      },
      "is_fraud": false
    },
    {
      "transaction_id": "TX004",
      "timestamp": "2024-11-04 08:00:00",
      "amount": 600.0,
      "merchant": {
        "id": "M004",
        "name": "Local Printing Service",
        "category": "Professional Services",
        "latitude": 32.69,
        "longitude": -98.4
      },
      "transaction_type": "in-person",
      "location": {
        "latitude": 32.69,
        "longitude": -98.4,
        "distance_from_home": 4.0
      },
      "device_info": {
        "device_id": "D004",
        "type": "desktop",
        "is_trusted": true
      },
      "authentication": {
        "cvv_provided": true,
        "three_d_secure": "authenticated",
        "attempts": 1
      },
      "is_fraud": false
    },
    {
      "transaction_id": "TX005",
      "timestamp": "2024-11-05 10:00:00",
      "amount": 75.0,
      "merchant": {
        "id": "M005",
        "name": "Local Office Supply Shop",
        "category": "Office Supplies",
        "latitude": 32.6705,
        "longitude": -98.4105
      },
      "transaction_type": "in-person",
      "location": {
        "latitude": 32.6705,
        "longitude": -98.4105,
        "distance_from_home": 0.7
      },
      "device_info": {
        "device_id": "D005",
        "type": "mobile",
        "is_trusted": true
      },
      "authentication": {
        "cvv_provided": true,
        "three_d_secure": "authenticated",
        "attempts": 1
      },
      "is_fraud": false
    },
    {
      "transaction_id": "TX006",
      "timestamp": "2024-10-29 14:30:00",
      "amount": 890.0,
      "merchant": {
        "id": "M006",
        "name": "Wholesale Supplies Warehouse",
        "category": "Wholesale",
        "latitude": 32.63,
        "longitude": -98.37
      },
      "transaction_type": "in-person",
      "location": {
        "latitude": 32.63,
        "longitude": -98.37,
        "distance_from_home": 8.0
      },
      "device_info": {
        "device_id": "D006",
        "type": "desktop",
        "is_trusted": true
      },
      "authentication": {
        "cvv_provided": true,
        "three_d_secure": "authenticated",
        "attempts": 1
      },
      "is_fraud": false
    },
    {
      "transaction_id": "TX007",
      "timestamp": "2024-11-02 19:00:00",
      "amount": 500.0,
      "merchant": {
        "id": "M007",
        "name": "Nearby Restaurant",
        "category": "Restaurant",
        "latitude": 32.6707,
        "longitude": -98.405
      },
      "transaction_type": "in-person",
      "location": {
        "latitude": 32.6707,
        "longitude": -98.405,
        "distance_from_home": 1.0
      },
      "device_info": {
        "device_id": "D007",
        "type": "mobile",
        "is_trusted": true
      },
      "authentication": {
        "cvv_provided": true,
        "three_d_secure": "authenticated",
        "attempts": 1
      },
      "is_fraud": false
    },
    {
      "transaction_id": "TX008",
      "timestamp": "2024-10-31 15:30:00",
      "amount": 740.0,
      "merchant": {
        "id": "M008",
        "name": "National Hardware Store",
        "category": "Hardware",
        "latitude": 32.665,
        "longitude": -98.42
      },
      "transaction_type": "in-person",
      "location": {
        "latitude": 32.665,
        "longitude": -98.42,
        "distance_from_home": 2.5
      },
      "device_info": {
        "device_id": "D008",
        "type": "mobile",
        "is_trusted": true
      },
      "authentication": {
        "cvv_provided": true,
        "three_d_secure": "authenticated",
        "attempts": 1
      },
      "is_fraud": false
    },
    {
      "transaction_id": "TX009",
      "timestamp": "2024-11-05 09:30:00",
      "amount": 50.0,
      "merchant": {
        "id": "M009",
        "name": "Local Coffee Shop",
        "category": "Restaurant",
        "latitude": 32.6701,
        "longitude": -98.4151
      },
      "transaction_type": "in-person",
      "location": {
        "latitude": 32.6701,
        "longitude": -98.4151,
        "distance_from_home": 0.5
      },
      "device_info": {
        "device_id": "D009",
        "type": "mobile",
        "is_trusted": true
      },
      "authentication": {
        "cvv_provided": true,
        "three_d_secure": "authenticated",
        "attempts": 1
      },
      "is_fraud": false
    },
    {
      "transaction_id": "TX010",
      "timestamp": "2024-11-04 19:00:00",
      "amount": 12.5,
      "merchant": {
        "id": "M010",
        "name": "Remote Printer Shop",
        "category": "Professional Services",
        "latitude": 40.7128,
        "longitude": -74.006
      },
      "transaction_type": "online",
      "location": {
        "latitude": 40.7128,
        "longitude": -74.006,
        "distance_from_home": 1000
      },
      "device_info": {
        "device_id": "D010",
        "type": "mobile",
        "is_trusted": true
      },
      "authentication": {
        "cvv_provided": true,
        "three_d_secure": "authenticated",
        "attempts": 1
      },
      "is_fraud": true
    }
  ]
}