{
  "user_profile": {
    "user_id": "fc272db7-d2aa-4fa2-bbf6-c4eb8a5f9caa",
    "archetype": "Frugal Minimalist",
    "home_address": {
      "latitude": 29.6429,
      "longitude": -87.027
    },
    "preferred_categories": [
      "Grocery",
      "Public Transport",
      "Discount Stores",
      "Utilities"
    ],
    "avg_transaction_amount": 100.0,
    "credit_score": 750
  },
  "transactions": [
    {
      "transaction_id": "TX001",
      "timestamp": "2024-10-30 14:15:00",
      "amount": 25.75,
      "merchant": {
        "id": "M001",
        "name": "Local Grocery Store",
        "category": "Grocery",
        "latitude": 29.65,
        "longitude": -87.0
      },
      "transaction_type": "in-person",
      "location": {
        "latitude": 29.65,
        "longitude": -87.0,
        "distance_from_home": 5.0
      },
      "device_info": {
        "device_id": "D001",
        "type": "mobile",
        "is_trusted": true
      },
      "authentication": {
        "cvv_provided": true,
        "three_d_secure": "authenticated",
        "attempts": 1
      },
      "is_fraud": false
    },
    {
      "transaction_id": "TX002",
      "timestamp": "2024-10-29 11:30:00",
      "amount": 12.5,
      "merchant": {
        "id": "M002",
        "name": "Discount Store",
        "category": "Discount Stores",
        "latitude": 29.64,
        "longitude": -87.01
      },
      "transaction_type": "in-person",
      "location": {
        "latitude": 29.64,
        "longitude": -87.01,
        "distance_from_home": 2.5
      },
      "device_info": {
        "device_id": "D002",
        "type": "mobile",
        "is_trusted": true
      },
      "authentication": {
        "cvv_provided": true,
        "three_d_secure": "authenticated",
        "attempts": 1
      },
      "is_fraud": false
    },
    {
      "transaction_id": "TX003",
      "timestamp": "2024-10-28 15:00:00",
      "amount": 40.0,
      "merchant": {
        "id": "M003",
        "name": "Wholesale Club",
        "category": "Grocery",
        "latitude": 29.652,
        "longitude": -87.002
      },
      "transaction_type": "in-person",
      "location": {
        "latitude": 29.652,
        "longitude": -87.002,
        "distance_from_home": 6.0
      },
      "device_info": {
        "device_id": "D003",
        "type": "mobile",
        "is_trusted": true
      },
      "authentication": {
        "cvv_provided": true,
        "three_d_secure": "authenticated",
        "attempts": 1
      },
      "is_fraud": false
    },
    {
      "transaction_id": "TX004",
      "timestamp": "2024-10-27 16:45:00",
      "amount": 15.99,
      "merchant": {
        "id": "M004",
        "name": "Organic Store",
        "category": "Grocery",
        "latitude": 29.6405,
        "longitude": -87.02
      },
      "transaction_type": "in-person",
      "location": {
        "latitude": 29.6405,
        "longitude": -87.02,
        "distance_from_home": 3.0
      },
      "device_info": {
        "device_id": "D004",
        "type": "mobile",
        "is_trusted": true
      },
      "authentication": {
        "cvv_provided": true,
        "three_d_secure": "authenticated",
        "attempts": 1
      },
      "is_fraud": false
    },
    {
      "transaction_id": "TX005",
      "timestamp": "2024-10-26 13:30:00",
      "amount": 75.0,
      "merchant": {
        "id": "M005",
        "name": "City Bus Service",
        "category": "Public Transport",
        "latitude": 29.64,
        "longitude": -87.025
      },
      "transaction_type": "in-person",
      "location": {
        "latitude": 29.64,
        "longitude": -87.025,
        "distance_from_home": 1.0
      },
      "device_info": {
        "device_id": "D005",
        "type": "mobile",
        "is_trusted": true
      },
      "authentication": {
        "cvv_provided": true,
        "three_d_secure": "authenticated",
        "attempts": 1
      },
      "is_fraud": false
    },
    {
      "transaction_id": "TX006",
      "timestamp": "2024-10-24 17:00:00",
      "amount": 100.0,
      "merchant": {
        "id": "M006",
        "name": "Electric Company",
        "category": "Utilities",
        "latitude": 29.641,
        "longitude": -87.029
      },
      "transaction_type": "in-person",
      "location": {
        "latitude": 29.641,
        "longitude": -87.029,
        "distance_from_home": 1.5
      },
      "device_info": {
        "device_id": "D006",
        "type": "mobile",
        "is_trusted": true
      },
      "authentication": {
        "cvv_provided": true,
        "three_d_secure": "authenticated",
        "attempts": 1
      },
      "is_fraud": false
    },
    {
      "transaction_id": "TX007",
      "timestamp": "2024-10-23 12:00:00",
      "amount": 30.0,
      "merchant": {
        "id": "M007",
        "name": "Supermarket",
        "category": "Grocery",
        "latitude": 29.653,
        "longitude": -87.003
      },
      "transaction_type": "in-person",
      "location": {
        "latitude": 29.653,
        "longitude": -87.003,
        "distance_from_home": 6.5
      },
      "device_info": {
        "device_id": "D007",
        "type": "mobile",
        "is_trusted": true
      },
      "authentication": {
        "cvv_provided": true,
        "three_d_secure": "authenticated",
        "attempts": 1
      },
      "is_fraud": false
    },
    {
      "transaction_id": "TX008",
      "timestamp": "2024-10-20 09:15:00",
      "amount": 150.0,
      "merchant": {
        "id": "M008",
        "name": "City Mart",
        "category": "Discount Stores",
        "latitude": 29.646,
        "longitude": -87.008
      },
      "transaction_type": "in-person",
      "location": {
        "latitude": 29.646,
        "longitude": -87.008,
        "distance_from_home": 4.0
      },
      "device_info": {
        "device_id": "D008",
        "type": "mobile",
        "is_trusted": true
      },
      "authentication": {
        "cvv_provided": true,
        "three_d_secure": "authenticated",
        "attempts": 1
      },
      "is_fraud": false
    },
    {
      "transaction_id": "TX009",
      "timestamp": "2024-10-15 11:00:00",
      "amount": 18.99,
      "merchant": {
        "id": "M009",
        "name": "Pharmacy",
        "category": "Utilities",
        "latitude": 29.645,
        "longitude": -87.005
      },
      "transaction_type": "in-person",
      "location": {
        "latitude": 29.645,
        "longitude": -87.005,
        "distance_from_home": 2.0
      },
      "device_info": {
        "device_id": "D009",
        "type": "mobile",
        "is_trusted": true
      },
      "authentication": {
        "cvv_provided": true,
        "three_d_secure": "authenticated",
        "attempts": 1
      },
      "is_fraud": false
    },
    {
      "transaction_id": "TX010",
      "timestamp": "2024-10-10 13:45:00",
      "amount": 35.5,
      "merchant": {
        "id": "M010",
        "name": "Gas Station",
        "category": "Utilities",
        "latitude": 29.644,
        "longitude": -87.017
      },
      "transaction_type": "in-person",
      "location": {
        "latitude": 29.644,
        "longitude": -87.017,
        "distance_from_home": 3.0
      },
      "device_info": {
        "device_id": "D010",
        "type": "mobile",
        "is_trusted": true
      },
      "authentication": {
        "cvv_provided": true,
        "three_d_secure": "authenticated",
        "attempts": 1
      },
      "is_fraud": false
    }
  ]
}